stop_id,stop_name,stop_lat,stop_lon,location_type
10000802,Hamraborg,64.111089000000007,-21.908351,0
10000804,Kópavogsbraut / Sunnuhlíð,64.109082000000001,-21.909596000000001,0
10000805,Kópavogslaug,64.109198,-21.917279,0
10000806,Kársnesskóli,64.109191999999993,-21.924001000000001,0
10000807,Kópavogsbraut / Kópavör,64.109298999999993,-21.930667,0
10000808,Kópavogsbraut / Borgarholtsbraut,64.111243999999999,-21.935373999999999,0
10000809,Kársnesbraut / Vesturvör,64.113603999999995,-21.929884000000001,0
10000810,Kársnesbraut / Litlavör,64.113681999999997,-21.923297999999999,0
10000811,Hlíðarhjalli / Bakkahjalli,64.107373999999993,-21.874089999999999,0
10000812,Kársnesbraut / Sæbólsbraut,64.114525999999998,-21.903531000000001,0
10000814,Skeljabrekka,64.114422000000005,-21.899865999999999,0
10000815,Smiðjuvegur / Gul gata,64.113327999999996,-21.84835,0
10000817,Vatnsendavegur / Kóravegur,64.085384000000005,-21.819621999999999,0
10000818,Smiðjuvegur / Gul gata,64.113248999999996,-21.848192000000001,0
10000819,Álfhólsvegur / Túnbrekka,64.111757999999995,-21.884426999999999,0
10000820,Menntaskólinn í Kópavogi / MK,64.110166000000007,-21.895859999999999,0
10000821,Menntaskólinn í Kópavogi / MK,64.110274000000004,-21.895669000000002,0
10000822,Kópavogsskóli,64.110378999999995,-21.900321999999999,0
10000823,Vatnsendavegur / Kóravegur,64.085310000000007,-21.818631,0
10000824,Vatnsendavegur / Elliðahvammsvegur,64.087018,-21.812823999999999,0
10000825,Fífuhvammsvegur / Arnarsmári,64.099644999999995,-21.904513000000001,0
10000826,Fífuhvammsvegur / Arnarsmári,64.099710999999999,-21.903924,0
10000827,Arnarnesvegur / Bæjarbraut,64.098690000000005,-21.905116,0
10000828,Álfhólsvegur / Túnbrekka,64.111829999999998,-21.884425,0
10000830,Vatnsendavegur / Akurhvarf,64.087173000000007,-21.812628,0
10000831,Lindir,64.098579999999998,-21.870173999999999,0
10000832,Smiðjuvegur / Grá gata,64.110889,-21.85211,0
10000834,Arnarnesvegur / Salavegur,64.0893318657809,-21.8426006419659,0
10000835,Dalvegur / Hlíðarhjalli,64.106454999999997,-21.855698,0
10000836,Dalvegur / Hlíðarhjalli,64.106594999999999,-21.855848999999999,0
10000837,Hlíðarhjalli / Fífuhjalli,64.107757000000007,-21.860164999999999,0
10000838,Hjallakirkja,64.109553000000005,-21.866266,0
10000839,Smiðjuvegur / Grá gata,64.110900999999998,-21.852318,0
10000842,Nýbýlavegur / Laufbrekka,64.114069000000001,-21.887445,0
10000843,Nýbýlavegur / Birkigrund,64.1143221890465,-21.8876962017482,0
10000844,Nýbýlavegur / Hjallabrekka,64.113929999999996,-21.87987,0
10000845,Nýbýlavegur / Hjallabrekka,64.1141001281269,-21.8799443092546,0
10000846,Nýbýlavegur / Lundarbrekka,64.113677999999993,-21.872197,0
10000847,Nýbýlavegur / Lundarbrekka,64.113842,-21.872486,0
10000848,Nýbýlavegur / Ástún,64.113735,-21.868226,0
10000849,Nýbýlavegur / Þverbrekka,64.113461000000001,-21.866342,0
10000850,Nýbýlavegur / Álfabrekka,64.112943999999999,-21.861297,0
10000851,Nýbýlavegur / Álfabrekka,64.113209,-21.86117,0
10000852,Nýbýlavegur / Efstihjalli,64.110757000000007,-21.856081,0
10000853,Nýbýlavegur / Skemmuvegur,64.110813,-21.855532,0
10000854,Sunnuhlíð,64.107073999999997,-21.905615000000001,0
10000856,Hlíðarhvammur,64.106196999999995,-21.903763999999999,0
10000857,Digranesvegur / Brattabrekka,64.109999999999999,-21.888501000000002,0
10000858,Digranesvegur / Brattabrekka,64.110157999999998,-21.888489,0
10000859,Kópavogsskóli,64.110292000000001,-21.899697,0
10000860,Vatnsendavegur / Álfkonuhvarf,64.090785999999994,-21.808157999999999,0
10000862,Dalvegur,64.105857999999998,-21.872156,0
10000863,Dalvegur,64.105812,-21.871791999999999,0
10000864,Smáratorg,64.10427,-21.879688999999999,0
10000865,Smáratorg,64.104185,-21.879448,0
10000872,Smárar,64.102284999999995,-21.892144999999999,0
10000873,Smárar,64.102069999999998,-21.892386999999999,0
10000874,Smáralind,64.102703,-21.886314,0
10000875,Smáralind,64.102525,-21.885823,0
10000876,Lindir,64.098921000000004,-21.871548000000001,0
10000880,Arnarnesvegur / Salavegur,64.089365999999998,-21.845248000000002,0
10000882,Lindarvegur,64.100825,-21.871459000000002,0
10000883,Hlíðardalsvegur / Kópalind,64.102108999999999,-21.864024000000001,0
10000884,Hlíðardalsvegur / Iðalind,64.099474000000001,-21.862352999999999,0
10000885,Hvammsvegur,64.096328,-21.858788000000001,0
10000887,Salavegur / Fensalir,64.093776000000005,-21.853171,0
10000889,Salavegur / Kórsalir,64.092119999999994,-21.846356,0
10000892,Hlíðarvegur / Grænatunga,64.108301999999995,-21.895524000000002,0
10000893,Hlíðarvegur / Vogatunga,64.107808000000006,-21.901346,0
10000894,Hlíðarvegur / Hrauntunga,64.108751999999996,-21.890087999999999,0
10000895,Hlíðarhjalli / Brekkuhjalli,64.107586999999995,-21.879615999999999,0
10000900,Smárahvammsvegur / Hlíðarsmári,64.097631,-21.891484,0
10000901,Smárahvammsvegur / Smáralind,64.100015,-21.889215,0
10000903,Smárahvammsvegur / Smáralind,64.099989,-21.889837,0
10000904,Smárahvammsvegur / Hlíðarsmári,64.097616000000002,-21.891752,0
10000906,Kársnesbraut / Huldubraut,64.114277000000001,-21.914967000000001,0
10000907,Hvammsvegur,64.096463,-21.858741999999999,0
10000908,Hlíðardalsvegur / Iðalind,64.098855,-21.862279999999998,0
10000909,Hlíðardalsvegur / Krossalind,64.102216999999996,-21.863889,0
10000910,Lindarvegur,64.100793999999993,-21.871763000000001,0
10000911,Salavegur / Rjúpnasalir,64.090012000000002,-21.843933,0
10000917,Skálaheiði,64.110944000000003,-21.873839,0
10000918,Hjallakirkja,64.109514000000004,-21.866139,0
10000919,Hlíðarhjalli / Fífuhjalli,64.107695000000007,-21.860097,0
10000920,Rjúpnavegur,64.086819,-21.83374,0
10000922,Hörðuvallaskóli,64.084613000000004,-21.825444000000001,0
10000923,Hörðuvallaskóli,64.084677999999997,-21.826077999999999,0
10000925,Rjúpnavegur,64.086905000000002,-21.833584999999999,0
10000926,Skálaheiði,64.110981,-21.873669,0
10000927,Engihjalli,64.109807000000004,-21.860417999999999,0
10000928,Álfhólsskóli / Efstihjalli,64.110826000000003,-21.862431000000001,0
10000929,Hlíðarvegur / Vogatunga,64.1077307521777,-21.9012575604432,0
10000930,Hlíðarvegur / Grænatunga,64.1082428971891,-21.8949856142625,0
10000931,Hlíðarvegur / Hrauntunga,64.1086400526015,-21.8904403899256,0
10000932,Hlíðarhjalli / Brekkuhjalli,64.1075388010915,-21.8795335956611,0
10000933,Hlíðarhjalli / Bakkahjalli,64.1073332858159,-21.8740787033099,0
10000936,Engihjalli,64.1097074496591,-21.860406318069,0
10000937,Kársnesbraut / Sæbólsbraut,64.1146951648691,-21.9068959221268,0
10000938,Kársnesbraut / Huldubraut,64.114436747609,-21.915096355604,0
10000939,Kársnesbraut / Litlavör,64.1138108977218,-21.9233745698796,0
10000940,Kársnesbraut / Vesturvör,64.1137321861171,-21.9293682771579,0
10000941,Kópavogsbraut / Borgarholtsbraut,64.1110764334112,-21.9356735893651,0
10000942,Kópavogsbraut / Kópavör,64.1092386222099,-21.931263789341,0
10000943,Kársnesskóli,64.1091270432019,-21.9242167724833,0
10000944,Kópavogslaug,64.1090471314352,-21.9172420900144,0
10000945,Vatnsendavegur / Breiðahvarf,64.090773999999996,-21.807935000000001,0
10000946,Álfhólsskóli / Digranes,64.111428000000004,-21.872992,0
10000948,Lundur,64.114587,-21.894919999999999,0
10000949,Lundur,64.1148053730673,-21.8950634999233,0
10000950,Þingmannaleið / Vallakór,64.0847611525669,-21.8202757765777,0
10000951,Boðaþing,64.082119000000006,-21.817871,0
10000953,Vatnsendahvarf / Víkurhvarf,64.093626,-21.808357000000001,0
10000954,Vatnsendahvarf / Ögurhvarf,64.096424999999996,-21.805488,0
10000955,Vatnsendahvarf / Ögurhvarf,64.096530000000001,-21.805769999999999,0
10000956,Vatnsendahvarf / Víkurhvarf,64.093697000000006,-21.808651000000001,0
10000957,Dalaþing,64.08076,-21.813769,0
10000961,Álfhólsskóli / Digranes,64.1113109279616,-21.8712193283921,0
10000962,Álfhólsskóli / Efstihjalli,64.1111001509471,-21.865524664794,0
10000963,Sunnuhlíð,64.1089980214091,-21.9095188983322,0
10000964,Fífuhvammsvegur / Salavegur,64.0943230244082,-21.8617431163278,0
10000965,Fífuhvammsvegur / Salavegur,64.0944757904809,-21.8616214526045,0
10000966,Arnarnesvegur / Salalaug,64.0896855104562,-21.8549341473963,0
10000967,Arnarnesvegur / Salalaug,64.0898393254196,-21.8547591189958,0
10000968,Salavegur / Rjúpnasalir,64.0901261552729,-21.8436348169245,0
10000969,Salavegur / Kórsalir,64.0922066046754,-21.8463327277251,0
10000970,Salavegur / Fensalir,64.0939306587926,-21.8531851724621,0
11000100,Grænamýri,64.146191000000002,-21.977658999999999,0
11000101,Nesvegur / Skerjabraut,64.148336,-21.98321,0
11000102,Eiðistorg,64.150700999999998,-21.987076999999999,0
11000103,Íþróttamiðstöð Seltjarnarness,64.149907999999996,-21.992431,0
11000104,Suðurströnd / Bakkavör,64.151323000000005,-22.002625999999999,0
11000105,Suðurströnd / Miðbraut,64.153259000000006,-22.004812000000001,0
11000106,Lindarbraut / Hæðarbraut,64.155473000000001,-22.003511,0
11000107,Lindarbraut / Hofgarðar,64.157640000000001,-22.001297000000001,0
11000108,Norðurströnd / Bollagarðar,64.157635999999997,-21.992570000000001,0
11000109,Norðurströnd / Fornaströnd,64.154798,-21.986626999999999,0
11000110,Norðurströnd / Austurströnd,64.152591999999999,-21.985946999999999,0
11000111,Eiðistorg,64.150386999999995,-21.9861,0
11000112,Nesvegur / Skerjabraut,64.148036000000005,-21.982980999999999,0
11000113,Grænamýri,64.146086999999994,-21.977692000000001,0
11000147,Norðurströnd / Barðaströnd,64.156782000000007,-21.988204,0
13001201,Arnarneshæð,64.099867000000003,-21.916848999999999,0
13001202,Arnarneshæð,64.099334999999996,-21.913226000000002,0
13001204,Arnarneshæð,64.099529000000004,-21.912901999999999,0
13001206,Vífilsstaðavegur / Sjávargrund,64.091965000000002,-21.929767999999999,0
13001207,Arnarnesvegur / Bæjarbraut,64.098382999999998,-21.903811000000001,0
13001208,Karlabraut / Reynilundur,64.085650999999999,-21.909578,0
13001209,Karlabraut / Espilundur,64.085800000000006,-21.909279000000002,0
13001210,Karlabraut / Furulundur,64.088234999999997,-21.907285000000002,0
13001211,Karlabraut / Búðir,64.089626999999993,-21.904301,0
13001212,Karlabraut / Heiðarlundur,64.088218999999995,-21.907533000000001,0
13001218,Vídalínskirkja,64.086775000000003,-21.916422000000001,0
13001219,Garðatorg,64.087861209459,-21.92007600127,0
13001222,Fjölbrautaskólinn í Garðabæ / FG,64.092528000000001,-21.902847000000001,0
13001223,Bæjarbraut / Blómahæð,64.096422000000004,-21.902784,0
13001224,Karlabraut / Búðir,64.089579999999998,-21.904582999999999,0
13001225,Bæjarbraut / Maltakur,64.096019999999996,-21.90212,0
13001226,Fjölbrautaskólinn í Garðabæ / FG,64.092585,-21.903220999999998,0
13001233,Flatahraun / Álftanesvegur,64.077515000000005,-21.929596,0
13001234,Bæjarbraut / Línakur,64.0979809046859,-21.9071613098249,0
13001300,Ásgarður,64.089679000000004,-21.929797000000001,0
13001301,Ásabraut / Arnarás,64.09075,-21.942955999999999,0
13001302,Ásabraut / Birkiás,64.088076000000001,-21.940529000000002,0
13001303,Ásabraut / Brekkuás,64.086973,-21.942166,0
13001304,Ásabraut / Hraunsholtsbraut,64.085690999999997,-21.950247999999998,0
13001305,Álftanesvegur / Herjólfsgata,64.085065999999998,-21.968357999999998,0
13001306,Álftanesvegur / Garðaholtsvegur,64.089246000000003,-21.982334000000002,0
13001322,Garðahraun,64.084827000000004,-21.958036,0
13001323,Garðahraun,64.084719000000007,-21.957896000000002,0
13001328,Álftanesvegur / Garðaholtsvegur,64.088768999999999,-21.981235000000002,0
13001329,Álftanesvegur / Herjólfsgata,64.084810000000004,-21.967694999999999,0
13001330,Vífilsstaðavegur / Sjáland,64.091666000000004,-21.942917999999999,0
13001333,Vífilsstaðavegur / Sjáland,64.091819999999998,-21.942955999999999,0
13001334,Garðatorg,64.08765,-21.91995,0
13001335,Vídalínskirkja,64.086336000000003,-21.915693999999998,0
13001336,Vífilsstaðavegur / Sjávargrund,64.092021000000003,-21.929625999999999,0
13001343,Suðurhraun,64.077766999999994,-21.926525999999999,0
13001344,Austurhraun / Suðurhraun,64.076160999999999,-21.922743000000001,0
13001345,Marel,64.076783000000006,-21.918972,0
13001346,Austurhraun / Miðhraun,64.078025999999994,-21.914425999999999,0
13001347,Austurhraun / Miðhraun,64.078046999999998,-21.914549000000001,0
13001348,Marel,64.076843999999994,-21.919125999999999,0
13001349,Austurhraun / Suðurhraun,64.076222000000001,-21.922933,0
13001350,Suðurhraun,64.077831000000003,-21.926386999999998,0
13001351,Ásabraut / Hraunsholtsbraut,64.085576000000003,-21.950153,0
13001352,Ásabraut / Brekkuás,64.086952999999994,-21.941986,0
13001353,Ásabraut / Birkiás,64.088123999999993,-21.940318999999999,0
13001354,Ásabraut / Arnarás,64.090879000000001,-21.942775000000001,0
13001355,Sjálandsskóli,64.092082,-21.936259,0
13001356,Sjálandsskóli,64.092176,-21.93456,0
13001361,Kauptún,64.074007,-21.914028,0
13001362,Arnarnesvegur / Nónhæð,64.096512,-21.894143,0
13001504,Hraunsholt,64.086284000000006,-21.937747999999999,0
13001506,Silfurtún,64.095162999999999,-21.922373,0
13001507,Arnarneshæð,64.099366000000003,-21.914992000000002,0
13001523,Hegranes,64.096185000000006,-21.921987999999999,0
13001525,Ásar,64.086354999999998,-21.938268999999998,0
13001584,Flatahraun / Álftanesvegur,64.077451999999994,-21.92963,0
13001585,Góa,64.075887,-21.928453,0
13001586,Reykjanesbraut / Vífilsstaðir,64.082286,-21.890105,0
13001587,Reykjanesbraut / Vífilsstaðavegur,64.083042,-21.896583,0
13001588,Hafnarfjarðarvegur / Ásgarður,64.0902770354474,-21.9294653094709,0
13001589,Hafnarfjarðarvegur / Ásgarður,64.0901120054328,-21.9308091387264,0
14001500,Fjörður,64.067849,-21.957284,0
14001501,Sjónarhóll,64.072041999999996,-21.954509999999999,0
14001502,Hraunbrún,64.075941,-21.951317,0
14001503,Stakkahraun,64.079736999999994,-21.948809000000001,0
14001504,Hjallabraut / Hraunbrún,64.072402,-21.966206,0
14001505,Hjallabraut / Skátaheimilið,64.075421,-21.966105,0
14001506,Hjallabraut / Skjólvangur,64.077295,-21.965835,0
14001512,Hjallabraut / Laufvangur,64.078802,-21.954223,0
14001513,Flatahraun / Sléttahraun,64.075161,-21.950128,0
14001514,Iðnskólinn,64.075418,-21.94595,0
14001515,Kaplakriki,64.0766171163806,-21.9376036338494,0
14001516,Hamraberg / Víðiberg,64.073995,-21.932517,0
14001517,Hamraberg / Lyngberg,64.073107,-21.934333,0
14001518,Hamraberg / Hnotuberg,64.071659,-21.936371,0
14001519,Hamraberg / Einiberg,64.068279,-21.935925,0
14001520,Lækjarskóli,64.0670160143399,-21.93988787921,0
14001521,Selvogsgata,64.06374,-21.946437,0
14001522,Öldutúnsskóli,64.062594,-21.944402,0
14001523,Kaldárselsvegur / Dalsás,64.057965,-21.934665,0
14001524,Brekkuás,64.054817,-21.93035,0
14001525,Goðatorg,64.057963,-21.949083,0
14001526,Hjallabraut,64.079085000000006,-21.94997,0
14001527,Hraunbrún,64.074785000000006,-21.952546999999999,0
14001528,Hellisgerði,64.071811999999994,-21.955183000000002,0
14001529,Vesturgata / Pakkhúsið,64.069953,-21.960135,0
14001530,Vesturgata / Norðurbakki,64.069946000000002,-21.963411000000001,0
14001531,Vesturgata / Bungalow,64.070682000000005,-21.965226000000001,0
14001532,Sundhöll Hafnarfjarðar,64.072826000000006,-21.969366999999998,0
14001533,Skjólvangur,64.077607999999998,-21.966408999999999,0
14001534,Hrafnista,64.079139999999995,-21.971700999999999,0
14001535,Hjallabraut / Víðivangur,64.078841999999995,-21.963587,0
14001536,Hjallabraut / Miðvangur,64.079269999999994,-21.958053,0
14001537,Hjallahraun,64.078033000000005,-21.947396000000001,0
14001538,Mávahraun,64.074825000000004,-21.942399999999999,0
14001539,Álfaskeið,64.071306000000007,-21.941305,0
14001540,Sólvangur,64.068838999999997,-21.939605,0
14001541,Flensborg,64.064380999999997,-21.947991999999999,0
14001542,Flensborg,64.064357000000001,-21.948488999999999,0
14001543,Hlíðarbraut,64.062707000000003,-21.953896,0
14001544,Suðurbæjarlaug,64.060473000000002,-21.962541999999999,0
14001545,Strandgata / Flensborgartorg,64.062054000000003,-21.961625000000002,0
14001546,Strandgata / Fjörukráin,64.065841000000006,-21.956042,0
14001547,Ásvallalaug,64.052061,-21.974783,0
14001550,Suðurbraut / Smárabarð,64.060139,-21.966671,0
14001551,Hjallabraut / Miðvangur,64.079561999999996,-21.958359000000002,0
14001552,Hjallabraut / Víðivangur,64.079396000000003,-21.962947,0
14001553,Skjólvangur,64.077691999999999,-21.966353000000002,0
14001554,Sundhöll Hafnarfjarðar,64.072793000000004,-21.969543999999999,0
14001555,Vesturgata / Bungalow,64.070666000000003,-21.965676999999999,0
14001556,Vesturgata / Norðurbakki,64.069818999999995,-21.963072,0
14001558,Suðurbraut / Hvaleyrarbraut,64.056582,-21.977544,0
14001561,Lækjargata,64.067288000000005,-21.947194,0
14001562,Suðurbraut / Melabraut,64.058801000000003,-21.971655999999999,0
14001563,Kaldárselsvegur,64.058817000000005,-21.939937,0
14001564,Kaldárselsvegur,64.058903999999998,-21.940189,0
14001567,Háholt / Akurholt,64.055659000000006,-21.979984000000002,0
14001568,Háholt / Bæjarholt,64.057010000000005,-21.982707000000001,0
14001569,Háholt / Hörgsholt,64.057772,-21.985420000000001,0
14001570,Miklaholt,64.059531000000007,-21.986919,0
14001577,Fjarðarkaup,64.081496000000001,-21.938210999999999,0
14001580,Jófríðarstaðavegur,64.062611000000004,-21.953707999999999,0
14001582,Álfaskeið / Mávahraun,64.074792000000002,-21.942184999999998,0
14001583,Sólvangur,64.068899999999999,-21.939511,0
14001585,Hjallahraun,64.078219000000004,-21.947617000000001,0
14001586,Suðurbraut / Þúfubarð,64.058718999999996,-21.971502000000001,0
14001587,Suðurbæjarlaug,64.060402999999994,-21.962432,0
14001588,Hlíðarberg / 10-11,64.066405000000003,-21.935842000000001,0
14001589,Hlíðarberg / Birkihlíð,64.062641999999997,-21.934570000000001,0
14001590,Hlíðarberg / Engjahlíð,64.060323999999994,-21.932901000000001,0
14001591,Hlíðarberg / Sóleyjarhlíð,64.058767000000003,-21.927344000000002,0
14001592,Hlíðarberg / Móberg,64.060179000000005,-21.923680000000001,0
14001593,Hlíðarberg / Lindarberg,64.062246999999999,-21.925333999999999,0
14001594,Hlíðarberg / Klettaberg,64.064481000000001,-21.927641000000001,0
14001595,Setbergsskóli,64.066092999999995,-21.933593999999999,0
14001596,Hlíðarberg / Hamraberg,64.067181000000005,-21.936015999999999,0
14001597,Lækjargata,64.067344000000006,-21.947980000000001,0
14001600,Strandgata / Fjörukráin,64.065194000000005,-21.956772999999998,0
14001601,Strandgata / Flensborgartorg,64.062178000000003,-21.96172,0
14001602,Kirkjuvellir,64.050652999999997,-21.982216999999999,0
14001603,Daggarvellir,64.048204999999996,-21.980834999999999,0
14001604,Hraunvallaskóli,64.045543255643,-21.979178128346,0
14001605,Haukahús,64.053245000000004,-21.971125000000001,0
14001606,Ástjörn,64.054096000000001,-21.965866999999999,0
14001607,Ásbraut / Álftaás,64.056630999999996,-21.957028000000001,0
14001608,Vörðutorg,64.055724999999995,-21.945865000000001,0
14001609,Ásbraut / Álftaás,64.056764999999999,-21.956983999999999,0
14001610,Ástjörn,64.054939000000005,-21.965700999999999,0
14001611,Suðurhvammur,64.057241000000005,-21.965128,0
14001612,Haukahús,64.053334000000007,-21.971691,0
14001613,Hraunvallaskóli,64.045546000000002,-21.979054999999999,0
14001614,Daggarvellir,64.048361,-21.980808,0
14001615,Kirkjuvellir,64.050623000000002,-21.981940999999999,0
14001616,Ásvallalaug,64.052789,-21.975244,0
14001617,Kirkjutorg,64.051702,-21.980002,0
14001618,Kirkjutorg,64.051711,-21.979893,0
14001619,Ásvallalaug,64.05275,-21.974952,0
14001620,Kelduhvammur,64.057287000000002,-21.965357000000001,0
14001623,Fjarðarkaup,64.081496000000001,-21.939793999999999,0
14001624,Skútahraun / Slökkvistöð,64.081646000000006,-21.936966999999999,0
14001626,Grænakinn,64.066051000000002,-21.944889,0
14001627,Álfaskeið,64.071382,-21.941172000000002,0
14001629,Miklaholt,64.059600000000003,-21.986930999999998,0
14001630,Háholt / Hörgsholt,64.057631000000001,-21.985164999999999,0
14001631,Háholt / Bæjarholt,64.056916000000001,-21.982859000000001,0
14001632,Háholt / Akurholt,64.055567999999994,-21.979975,0
14001634,Grænakinn,64.066074999999998,-21.944603999999998,0
14001635,Hrafnista,64.079054999999997,-21.971916,0
14001636,Herjólfsgata / Útsýnispallur,64.075018999999998,-21.973148999999999,0
14001637,Herjólfsgata / Útsýnispallur,64.075104999999994,-21.972971000000001,0
14001638,Hnoðravellir,64.043227999999999,-21.96752,0
14001639,Glitvellir,64.042418999999995,-21.975853999999998,0
14001640,Hvannavellir,64.043017000000006,-21.977810000000002,0
14001641,Flatahraun / Álfaskeið,64.075742000000005,-21.941716,0
14001642,Bæjarhraun / Flatahraun,64.077219999999997,-21.939841000000001,0
14001643,Bæjarhraun,64.079598000000004,-21.940570000000001,0
14001644,Bæjarhraun,64.079588000000001,-21.940795000000001,0
14001645,Bæjarhraun / Flatahraun,64.077162999999999,-21.940054,0
14001646,Flatahraun / Álfaskeið,64.075714000000005,-21.943929000000001,0
14001647,Hvannavellir,64.043002999999999,-21.977965999999999,0
14001648,Glitvellir,64.042339999999996,-21.97579,0
14001649,Hnoðravellir,64.043163000000007,-21.967206000000001,0
14001650,Hvaleyrarbraut / Brekkutröð,64.060387000000006,-21.978211000000002,0
14001651,Hvaleyrarbraut / Stapagata,64.062421000000001,-21.968675999999999,0
14001652,Hvaleyrarbraut / Stapagata,64.062475000000006,-21.968682000000001,0
14001653,Hvaleyrarbraut / Brekkutröð,64.060473000000002,-21.978383999999998,0
14001655,Klukkuvellir,64.043668999999994,-21.96265,0
14001660,Akurvellir,64.049266000000003,-21.983865999999999,0
14001661,Akurvellir,64.049250999999998,-21.983720999999999,0
14001662,Kirkjugarður Hafnarfjarðar,64.061706,-21.941994,0
14001663,Kaplakriki,64.0769446527884,-21.9374269861653,0
16031307,Eyvindarstaðavegur,64.1061277550452,-22.009885198667,0
16031308,Túngata,64.109385000000003,-22.012975000000001,0
16031309,Jörfavegur,64.114947999999998,-22.005856999999999,0
16031310,Túngata,64.109252999999995,-22.012978,0
16031311,Sjávargata,64.109516999999997,-22.018227,0
16031312,Hólmatún,64.108250999999996,-22.021435,0
16031313,Mýrarkot,64.104416999999998,-22.027197999999999,0
16031314,Bakkavegur,64.102159999999998,-22.026917000000001,0
16031315,Höfðabraut,64.100104999999999,-22.025576000000001,0
16031317,Brekkuland,64.100621000000004,-22.019044999999998,0
16031318,Höfðabraut,64.100226000000006,-22.025542999999999,0
16031319,Brekkuland,64.100561999999996,-22.018891,0
16031320,Breiðamýri,64.102340999999996,-22.017873999999999,0
16031321,Álftanesvegur / Bessastaðir,64.102592000000001,-22.009632,0
16031322,Norðurnesvegur / Bessastaðir,64.1025974321652,-22.0098531589104,0
16031323,Suðurnesvegur / Klukkuholt,64.102224000000007,-22.026779999999999,0
16031324,Suðurnesvegur / Mýrarkot,64.104472999999999,-22.027018999999999,0
16031325,Suðurnesvegur / Vesturtún,64.108264000000005,-22.021144,0
16031326,Suðurnesvegur / Sjávargata,64.109500999999995,-22.017855000000001,0
16031327,Eyvindarstaðavegur,64.106082000000001,-22.009841999999999,0
16040604,Baugshlíð / Skálatún,64.159549999999996,-21.725659,0
16040606,Baugshlíð / Klapparhlíð,64.163149000000004,-21.727951999999998,0
16040607,Álfatangi / Bollatangi,64.168510999999995,-21.717552000000001,0
16040608,Álfatangi / Brekkutangi,64.169358000000003,-21.714603,0
16040609,Álfatangi / Þverholt,64.170057,-21.709025,0
16040610,Skeiðholt,64.1696206480061,-21.6996765174318,0
16040611,Varmárskóli,64.169866999999996,-21.692703000000002,0
16040612,Háholt,64.167205999999993,-21.694365999999999,0
16040613,Reykjavegur / Jónsteigur,64.163313000000002,-21.687657999999999,0
16040614,Reykjavegur / Dælustöðvarvegur,64.158347000000006,-21.670779,0
16040615,Reykjavegur / Reykjabyggð,64.155737999999999,-21.663995,0
16040616,Lágafellsskóli,64.167079000000001,-21.722705999999999,0
16040617,Reykjavegur,64.153855,-21.65753,0
16040618,Reykjavegur / Dælustöðvarvegur,64.158349000000001,-21.670577000000002,0
16040619,Háholt,64.167237,-21.693797,0
16040620,Framhaldsskólinn í Mosfellsbæ / FMOS,64.16593,-21.702089,0
16040621,Reykjavegur / Reykjabyggð,64.155782117462707,-21.6639075700859,0
16040622,Reykjavegur / Jónsteigur,64.164058999999995,-21.689208000000001,0
16040624,Vesturlandsvegur / Ásland,64.171424000000002,-21.677768,0
16040625,Vesturlandsvegur / Hlíðartún,64.1607780403207,-21.7195195069781,0
16040634,Varmárskóli,64.169967999999997,-21.692647000000001,0
16040635,Skeiðholt,64.1696530641305,-21.6998814075743,0
16040636,Álfatangi / Þverholt,64.170265999999998,-21.708993,0
16040637,Álfatangi / Arnartangi,64.169377999999995,-21.715147000000002,0
16040638,Álfatangi / Skeljatangi,64.168441999999999,-21.717853000000002,0
16040639,Lágafellsskóli,64.166032000000001,-21.725909999999999,0
16040641,Baugshlíð / Skálatún,64.159295999999998,-21.725839000000001,0
16040649,Baugshlíð / Blikastaðavegur,64.162987000000001,-21.728159000000002,0
16040650,Reykjavegur / Völuteigur,64.160713999999999,-21.68113,0
16040651,Reykjavegur / Völuteigur,64.161111000000005,-21.681836000000001,0
16040652,Vesturlandsvegur / Ásland,64.170692000000003,-21.679203999999999,0
16040653,Leirvogstunga,64.183772,-21.682118,0
16040655,Reykjalundur,64.162784000000002,-21.663820000000001,0
16040656,Tjaldanes,64.180301,-21.635617,0
16040657,Mosfell,64.180536000000004,-21.619703999999999,0
16040658,Lundur,64.180738000000005,-21.606306,0
16040659,Laxnes,64.180336999999994,-21.590415,0
16040660,Lundur,64.18083,-21.606563999999999,0
16040661,Mosfell,64.180615000000003,-21.619986999999998,0
16040662,Tjaldanes,64.18039,-21.635743,0
16040663,Álafoss,64.1674549312659,-21.6825120604026,0
16040666,Vefarastræti / Gerplustræti,64.1673578872702,-21.664741757037,0
16040667,Vefarastræti / Helgafellsvegur,64.1689672717032,-21.6714987268818,0
16040668,Álafossvegur,64.1675276419087,-21.6820541257391,0
16040669,Framhaldsskólinn í Mosfellsbæ / FMOS,64.1656954722233,-21.7034970207252,0
16049670,Tunguvegur / Leirvogstunga,64.1816750307885,-21.6919785651855,0
16049671,Tungubakkar,64.1845172585536,-21.694540913184,0
16049672,Tunguvegur / Leirvogstunga,64.1815937735662,-21.6925666485543,0
16049673,Þverholt / Háholt,64.1661665888489,-21.6966621476578,0
16049674,Hlégarður / Háholt,64.1678556347102,-21.692131527505,0
20000003,Fitjar,63.973625,-22.54305,0
20000006,Fitjar,63.973935,-22.543178,0
20000007,Miðstöð,63.993969,-22.551521,0
20000008,Hringbraut / Norðurtún,64.000792,-22.559937,0
20000010,Nesvellir,63.991154,-22.549142,0
20000011,Bolafótur,63.985702,-22.549317,0
20000012,Steinás,63.987306,-22.549081,0
20000013,Njarðvíkurtorg,63.988328,-22.548869,0
20000014,Stekkjarkot,63.972134,-22.530116,0
20000015,Stekkjarkot,63.971988,-22.530065,0
20000016,Steinás,63.977047,-22.547051,0
20000017,Bolafótur,63.985411,-22.549051,0
20000018,Njarðvíkurtorg,63.987696,-22.548561,0
20000020,Fjölbrautaskóli Suðurnesja / FS,63.996435,-22.562531,0
20000021,Holtaskóli,63.99847,-22.562761,0
20000022,Hringbraut / Norðurtún,64.00089,-22.559641,0
20000024,Tjarnarhverfi,63.969848,-22.513746,0
20000025,Tjarnarhverfi,63.968518,-22.514284,0
20000026,Kirkjuvogur,63.934303,-22.687508,0
20000027,Landnámsbærinn,63.935349,-22.685721,0
20000028,Djúpivogur,63.933274,-22.682975,0
20000029,Seljavogur,63.933638,-22.680521,0
20000031,Háaleitisskóli,63.96803,-22.589808,0
20000033,Eldey,63.967085,-22.581452,0
20000034,Fjörheimar,63.973134,-22.580261,0
20000036,Álsvellir,64.00289,-22.57961,0
20000041,Keilir,63.969351,-22.570984,0
20000042,Keilisbraut,63.97147,-22.575254,0
20000045,Bogabraut,63.972781,-22.56637,0
20000047,Grænásbraut,63.975469,-22.565975,0
20000049,Skógartorg,63.971999,-22.558921,0
20000051,Grænás,63.981577,-22.557891,0
20000053,Ólafslundur,63.990053,-22.554063,0
20000057,Hjallavegur,63.989424,-22.550978,0
20000058,Krossmói,63.993639,-22.549056,0
20000059,Reykjavíkurtorg,63.99498,-22.550085,0
20000060,Vatnsholt,64.000254,-22.576353,0
20000061,Baldursgarður,64.002165,-22.570368,0
20000063,Heiðarsel,64.009702,-22.575426,0
20000064,Heiðarendi,64.010964,-22.575363,0
20000066,Heiðarbraut,64.008333,-22.572464,0
20000067,Aðalgata,64.003242,-22.564256,0
20000069,Vesturgata,64.005994,-22.564646,0
20000072,Myllubakkaskóli,64.001117,-22.556697,0
20000073,Hornbjarg,64.002764,-22.558661,0
20000077,Vinaminni,64.004238,-22.558515,0
20000078,Fischershús,64.006612,-22.55833,0
20000080,Gamli bærinn,64.005052,-22.556587,0
20000082,Stjáni Blái,63.997131,-22.549116,0
20000087,Stekkjargata,63.973027,-22.522569,0
20000089,Kambur,63.972228,-22.511714,0
20000090,Akurskóli,63.974372,-22.512978,0
20000091,Urðarbraut,63.970337,-22.505195,0
20000092,Spóatjörn,63.97499,-22.505276,0
20000094,Hafdalur,63.974385,-22.50035,0
20000095,Unnardalur,63.972477,-22.495793,0
20000096,Aspardalur,63.97101,-22.490074,0
20000097,Furudalur,63.97115,-22.485729,0
20000098,Keilir,63.96946,-22.571307,0
20000099,Grænás,63.981447,-22.558577,0
20000100,Heiðargarður,64.004759,-22.57717,0
20000101,Heiðarskóli,64.006563,-22.575019,0
20000103,Hafnargata,63.999651,-22.549994,0
20000110,KEF - Airport ,63.9970686450498,-22.628119,0
20000116,Beykidalur,63.968528,-22.490686,0
20000117,Engjadalur,63.96928,-22.500377,0
20000118,Akurskóli,63.974507,-22.512817,0
20000125,Virkjun,63.971673,-22.583785,0
20000128,Bogabraut,63.9722,-22.565779,0
20000129,Grænásbraut,63.975459,-22.565537,0
20000130,Skógarbraut,63.971421239310601,-22.551514262631802,0
20000131,Skógarbraut,63.971433380772503,-22.551692682669,0
20000132,Hringbraut / Melteigur,64.005568,-22.565461,0
20000133,Hringbraut / Knattspyrnuvöllur,63.998337744079898,-22.5565331531079,0
20000134,Hringbraut / Knattspyrnuvöllur,63.998371222834898,-22.5564066411808,0
20000135,Hringbraut / Melteigur,64.006591,-22.565913,0
20000605,Iðavellir,63.995871236977301,-22.5753401044283,0
23000001,Grindavík - Aðalbraut,63.843765,-22.435763,0
23000002,Lögreglustöðin Grindavík,63.839459090783301,-22.437825607729099,0
25030001,Íþróttamiðstöðin Sandgerði,64.033948,-22.700544,0
25030002,Varðan,64.038352,-22.704308,0
25030003,Þekkingarsetur Suðurnesja,64.041085322698095,-22.712208956330599,0
25040002,Pósthúsið Garði / Garður,64.069799,-22.651014,0
25040005,Nýjaland,64.075932,-22.668548,0
25040006,Garðvangur,64.0720646878747,-22.657318767610899,0
25040007,Garðvangur,64.072152900000006,-22.657284409999999,0
25040008,Vellir,64.064251040064306,-22.639801909407701,0
25040009,Vellir,64.064288069085194,-22.639762033330999,0
25060001,Grindavíkurafleggjari,63.96244,-22.42051,0
25060002,Vogaafleggjari,63.975115,-22.359635,0
25060003,Vogar - Gamla pósthúsið ,63.982788,-22.379973,0
25060005,Vogaafleggjari,63.973609299640799,-22.357684341092298,0
30001807,Garðabraut,64.319620999999998,-22.063735999999999,0
30001808,Bæjarskrifstofan,64.320346999999998,-22.069842000000001,0
30001809,Kirkjubraut / Stillholt,64.321487000000005,-22.075413000000001,0
30001810,Akratorg,64.317774999999997,-22.082324,0
30001811,Kirkjubraut / Stillholt,64.321423999999993,-22.074950999999999,0
30001812,Bæjarskrifstofan,64.320495,-22.070502,0
30001813,Garðabraut,64.319542999999996,-22.063942999999998,0
30001822,Þjóðbraut,64.326607442924,-22.0547478363332,0
30001823,Innnesvegur,64.319884999999999,-22.059070999999999,0
30001824,Innnesvegur,64.320121999999998,-22.059034,0
30001825,Þjóðbraut,64.3266320953141,-22.0541501240127,0
30001827,Bresaflöt,64.322727,-22.057072000000002,0
30001828,Bresaflöt,64.322708000000006,-22.056719999999999,0
31770001,Stykkishólmur - höfnin,65.07789,-22.726806,0
31770002,Stykkishólmur - Olís,65.072023,-22.733308,0
35111819,Melahverfi,64.38244,-21.849571,0
36091900,Borgarnes,64.54366,-21.911567,0
36091901,Bifröst,64.766313,-21.552072,0
36091902,Hvanneyri,64.563512,-21.760036,0
36091903,Kleppjárnsreykir,64.655831,-21.403658,0
36091904,Reykholt,64.664498,-21.294091,0
36091906,Baula,64.674734,-21.666195,0
36091907,Íþróttamiðstöðin,64.5402084852402,-21.921574032679001,0
37090001,Grundarfjörður,64.925097,-23.260496,0
37100001,Vatnaleið,64.9657155788255,-22.8892991922126,0
37130001,Vegamót,64.849237,-22.733502,0
37140001,Ólafsvík,64.893979,-23.704382,0
37140002,Rif,64.921473,-23.829734,0
37140003,Hellissandur,64.917249,-23.883747,0
37140004,Arnarstapi,64.766151,-23.633555,0
38110001,Búðardalur,65.108063,-21.763202,0
38110002,Skriðuland,65.3821852089881,-21.8762267930329,0
45020001,Króksfjarðarnes,65.45467,-21.923182,0
45020004,Króksfjarðarnes,65.454697943332803,-21.924041206859901,0
49080001,Staðarskáli,65.144715,-21.083616,0
49110001,Hólmavík - Kaupfélag,65.700898,-21.685735,0
52000001,Sauðárkrókur - N1,65.740862,-19.637706,0
52000002,Varmahlíð,65.553491,-19.446279,0
52000003,Hofsós,65.897242802709599,-19.412876931047901,0
52000004,Hólar,65.732834450858604,-19.112004803363899,0
55080001,Hvammstangavegur,65.352475800767095,-20.884436520936799,0
55080002,Hvammstangi,65.392146,-20.937127,0
55080003,Víðigerði,65.381,-20.645,0
56040001,Blönduós,65.659872,-20.2769,0
56110001,Skagaströnd,65.8242363570201,-20.300123841206,0
60000001,Miðbær,65.683053,-18.09,0
60000007,Þórunnarstræti / MA,65.676412,-18.098052,0
60000009,Þórunnarstræti / Hlíð,65.675047,-18.097684,0
60000010,Þórunnarstræti / Sjúkrahús,65.673714,-18.096709,0
60000011,Þórunnarstræti / Sjúkrahús,65.673508,-18.097042,0
60000012,Þórunnarstræti / Sunnutröð,65.67051,-18.095514,0
60000013,Þórunnarstræti / Lækjargata,65.668507,-18.095915,0
60000015,Naustabraut / Krókeyrarnöf,65.664222,-18.090241,0
60000019,Naustagata / Vallartún,65.661674,-18.094439,0
60000020,Naustagata / Vallartún,65.661613,-18.094244,0
60000021,Kjarnagata / Sómatún,65.662827,-18.099084,0
60000022,Kjarnagata / Sómatún,65.662609,-18.099091,0
60000023,Naustaskóli,65.665331,-18.101314,0
60000024,Naustaskóli,65.665231,-18.101313,0
60000027,Kjarnagata / Bónus,65.668767,-18.108311,0
60000028,Kjarnagata / Ásatún,65.668827,-18.108455,0
60000029,Mýrarvegur / Hringteigur,65.669796,-18.101431,0
60000030,Mýrarvegur / Hringteigur,65.669739,-18.101614,0
60000031,Mýrarvegur / Verkmenntaskóli,65.671948,-18.104293,0
60000032,Mýrarvegur / Verkmenntaskóli,65.672619,-18.104441,0
60000035,Skógarlundur / Birkilundur,65.6743,-18.1074,0
60000037,Skógarlundur / Hlíðarlundur,65.673676,-18.115512,0
60000038,Skógarlundur / Hjallalundur,65.674142,-18.119973,0
60000039,Skógarlundur / Hjallalundur,65.673827,-18.118833,0
60000040,Skógarlundur / Hrísalundur,65.676372,-18.122134,0
60000041,Skógarlundur / Furulundur,65.676092,-18.122203,0
60000042,Þingvallastræti / Hrísalundur,65.67796,-18.118367,0
60000043,Þingvallastræti / Grundargerði,65.678023,-18.119331,0
60000045,Þingvallastræti / Dalsbraut,65.678355,-18.112794,0
60000052,Þórunnarstræti / Hamarstígur,65.681587,-18.100242,0
60000053,Þórunnarstrætí / Hamarstígur,65.681825,-18.100031,0
60000054,Þórunnarstræti / Lögreglustöð,65.684553,-18.100572,0
60000055,Þórunnarstræti / Lögreglustöð,65.685086,-18.100399,0
60000056,Glerárgata / Þórunnarstræti,65.687484,-18.098031,0
60000057,Drottningarbraut,65.680149,-18.087338,0
60000061,Aðalstræti / Duggufjara,65.668997,-18.085852,0
60000062,Aðalstræti / Duggufjara,65.669451,-18.086216,0
60000063,Aðalstræti / Minjasafn,65.666318,-18.084971,0
60000064,Aðalstræti / Minjasafn,65.666535,-18.084775,0
60000065,Skautahöll,65.664106,-18.082991,0
60000066,Skautahöll,65.664067,-18.083244,0
60000067,Miðhúsabraut,65.661629,-18.084111,0
60000068,Miðhúsabraut,65.661222,-18.08483,0
60000069,Glerárgata / Eiðsvallagata,65.685509,-18.091164,0
60000070,Glerárgata / Eyrarvegur,65.687259,-18.096295,0
60000071,Borgarbraut / Glerártorg,65.688442,-18.103093,0
60000072,Borgarbraut / Glerártorg,65.688173,-18.103687,0
60000073,Borgarbraut / Háskóli,65.687106,-18.120173,0
60000074,Borgarbraut / Háskóli,65.687289,-18.122405,0
60000075,Hlíðarbraut / Borgarbraut,65.686596,-18.129162,0
60000076,Merkigil / Kiðagil,65.684259,-18.130902,0
60000077,Merkigil / Kiðagil,65.684187,-18.131765,0
60000078,Merkigil / Vesturgil,65.683851,-18.138579,0
60000079,Merkigil / Vesturgil,65.683492,-18.138369,0
60000080,Merkigil / Skuggagil,65.68549,-18.14048,0
60000081,Merkigil / Urðargil,65.687645,-18.141245,0
60000082,Merkigil / Urðargil,65.687563,-18.141172,0
60000083,Bugðusíða / Núpasíða,65.688269,-18.136218,0
60000084,Bugðusíða / Vestursíða,65.688803,-18.135289,0
60000085,Vestursíða / Lögmannshlíð,65.689778,-18.138472,0
60000086,Vestursíða / Lögmannshlíð,65.689528,-18.137961,0
60000087,Vestursíða / Brattasíða,65.691614,-18.14159,0
60000088,Vestursíða / Brattasíða,65.691989,-18.141542,0
60000089,Vestursíða / Bæjarsíða,65.694333,-18.143371,0
60000090,Vestursíða / Bæjarsíða,65.694557,-18.14418,0
60000091,Miðsíða,65.69608,-18.14319,0
60000092,Miðsíða / Móasíða,65.696066,-18.142001,0
60000093,Miðsíða / Múlasíða,65.694974,-18.136863,0
60000094,Miðsíða / Múlasíða,65.694808,-18.13657,0
60000095,Bugðusíða / Bjarg,65.694203,-18.132513,0
60000096,Bugðusíða / Bjarg,65.694296,-18.132572,0
60000097,Austursíða / Lindarsíða,65.695,-18.12924,0
60000098,Austursíða / Lindarsíða,65.694946,-18.129359,0
60000103,Skarðshlíð / Sunnuhlíð,65.691181,-18.126235,0
60000105,Skarðshlíð / Fosshlíð,65.689081,-18.124116,0
60000108,Glerárskóli,65.688096,-18.11662,0
60000110,Höfðahlíð / Áshlíð,65.68837,-18.112498,0
60000112,Hlíðarból,65.690419,-18.109798,0
60000113,Hörgárbraut / Þverholt,65.693625,-18.114872,0
60000114,Hörgárbraut / Undirhlíð,65.691858,-18.109864,0
60000115,Hörgárbraut / Stórholt,65.690776,-18.107598,0
60000116,Hörgárbraut / Stórholt,65.69093,-18.107199,0
60000117,Glerárbrú,65.689287,-18.102869,0
60000118,Glerárbrú,65.689223,-18.103407,0
60000119,Tryggvabraut / Hvannavellir,65.689801,-18.09744,0
60000120,Hjalteyrargata / Furuvellir,65.691337,-18.091652,0
60000123,Hjalteyrargata / Gránufélagsgata,65.686749,-18.082842,0
60000124,Réttarhvammur,65.679715,-18.131744,0
60000125,Réttarhvammur,65.678866,-18.131584,0
60000126,Þingvallastræti / Pálmholt,65.677699,-18.12388,0
60000128,Skógarlundur / Hlíðarlundur,65.673686,-18.114603,0
60000129,Mímisbraut / Verkmenntaskóli,65.672467,-18.103809,0
60000130,Þingvallastræti / Furulundur,65.677423,-18.126252,0
60000132,Hjalteyrargata / Grenivellir,65.689563,-18.086457,0
60000137,Þingvallastræti / Byggðavegur,65.679119,-18.103151,0
60000139,Kaupvangsstræti,65.680587,-18.090284,0
60000140,Hlíðarbraut / Tröllagil,65.686593,-18.129323,0
60000141,Glerárgata / Ráðhús,65.685184,-18.091117,0
60000142,Tryggvabraut / Slökkvistöð,65.691062,-18.093708,0
60000143,Tryggvabraut / Hvannavellir,65.689918,-18.097514,0
60000150,Akureyri - Hof,65.68395,-18.08767,0
60000151,Hjalteyrargata / Gránufélagsgata,65.68643,-18.0832,0
60000152,Hjalteyrargata / Grenivellir,65.68965,-18.0865,0
60000153,Skarðshlíð / Undirhlíð,65.69111,-18.1118,0
60000154,Skarðshlíð / Boginn,65.693,-18.1184,0
60000155,Smárahlíð,65.69277,-18.1254,0
60000156,Hlíðarbraut / Austursíða,65.6948,-18.1255,0
60000157,Smárahlíð,65.69275,-18.1255,0
60000158,Skarðshlíð / Boginn,65.69296,-18.1185,0
60000159,Skarðshlíð / Undirhlíð,65.69095,-18.1115,0
60000160,Merkigil / Skuggagil,65.68516,-18.14,0
60000161,Dalsbraut / Stóragerði,65.6804,-18.1159,0
60000162,Dalsbraut / Klettaborg,65.68494,-18.1152,0
60000163,Dalsbraut / Norðurslóð,65.68426,-18.1158,0
60000164,Dalsbraut / Stóragerði,65.67955,-18.1159,0
60000165,Þingvallastræti / Mýrarvegur,65.67866,-18.1086,0
60000166,Þórunnarstræti / Íþróttahöll,65.67809,-18.09917,0
60000167,Skógarlundur / Birkilundur,65.67435,-18.1073,0
60000168,Naustabraut / Krókeyrarnöf,65.66406,-18.0899,0
60000169,Þórunnarstræti / Lækjargata,65.66857,-18.0957,0
60000170,Þórunnarstræti / Sunnutröð,65.67141,-18.0958,0
60000172,Þórunnarstræti / Íþróttahöll,65.67835,-18.099,0
60000173,Þingvallastræti / Byggðavegur,65.67931,-18.1016,0
60000174,Þingvallastræti / Mýrarvegur,65.67877,-18.1086,0
60000175,Hafnarstræti / Aðalstræti,65.67218,-18.0859,0
60000176,Hafnarstræti / Aðalstræti,65.67254,-18.0863,0
60000177,Drottningarbraut,65.6801,-18.0872,0
60000178,Þingvallastræti / Dalsbraut,65.6778,-18.1159,0
61000001,Húsavík,66.046915,-17.343375,0
61000005,Jökulsá á Fjöllum,65.626341,-16.17725,0
62500001,Ólafsfjörður - Aðalgata,66.07082,-18.655939,0
62500002,Siglufjörður - Olís,66.149834,-18.903148,0
62500003,Siglufjörður - Snorragata suður,66.142078,-18.915306,0
62500004,Siglufjörður - Snorragata suður,66.141952,-18.915041,0
62500005,Ólafsfjörður - Aðalgata,66.070939,-18.657531,0
62500006,Ólafsfjörður - Múlavegur,66.074536,-18.642085,0
62500007,Ólafsfjörður - Múlavegur,66.074606,-18.642297,0
64000001,Dalvík,65.966988,-18.529751,0
65060001,Hjalteyri - Vegamót,65.758471,-18.232226,0
65060002,Litli Árskógssandur - Vegamót,65.928321,-18.364432,0
66070001,Mývatn - Reykjahlíð,65.642,-16.911,0
66070002,Skútustaðir,65.567,-17.029,0
66090001,Aðaldalsvegur,65.886061,-17.437669,0
66120001,Fnjóskárbrú,65.7467,-17.912,0
66120002,Norðausturvegur,65.705251,-17.622566,0
66120003,Fosshóll - Goðafoss,65.686,-17.539,0
66120004,Laugar,65.7211000968779,-17.3719457585166,0
70007101,Seyðisfjörður / Herðubreið,65.260099999999994,-14.0067,0
73007351,Reyðarfjörður / Fjarðarbyggðarhöllin,65.033900000000003,-14.2121,0
73007352,Austurvegur / Barkur,65.031300000000002,-14.206799999999999,0
73007353,Reyðarfjörður / Molinn,65.0323,-14.2186,0
73007354,Reyðarfjörður / Orkuskálinn,65.034400000000005,-14.2278,0
73007355,Alcoa Fjarðaál,65.0327,-14.0969,0
73007356,Eskifjörður / Sundlaug,65.077299999999994,-14.035,0
73007357,Þjónustumiðstöð / Shell,65.075800000000001,-14.0221,0
73007358,Strandgata / Steinholt,65.066599999999994,-14.0038,0
73007359,Eskifjörður / Valhöll,65.070800000000006,-14.0131,0
73007401,Norðfjörður / Nesbakki,65.148499999999999,-13.667999999999999,0
73007402,Norðfjörður / VA,65.148899999999998,-13.6785,0
73007403,Miðstræti / Stekkjargata,65.148399999999995,-13.69,0
73007404,Hafnarbraut / Gilsbakki,65.147900000000007,-13.6982,0
73007405,Norðfjörður / Orkan,65.147499999999994,-13.706899999999999,0
73007551,Fáskrúðsfjörður / Við kirkjugarð,64.934200000000004,-14.0281,0
73007552,Fáskrúðsfjörður / Skólavegur,64.932100000000005,-14.019299999999999,0
73007553,Fáskrúðsfjörður / Skrúður,64.929199999999994,-14.0076,0
73007554,Skólavegur / Hólsstígur,64.927700000000002,-14.0015,0
73007555,Fáskrúðsfjörður / Hafnargata v. Franska sp.,64.926400000000001,-14.0008,0
73007556,Fáskrúðsfjörður / Búðavegur,64.9306,-14.0155,0
73007557,Stöðvarfjörður / Brekkan - uppl. miðstöð,64.833,-13.8738,0
75097201,Borgarfjörður / Fjarðarborg,65.5274,-13.8172,0
76137601,Breiðdalsvík / Kaupfjelagið,64.7921,-14.0094,0
76177651,Djúpivogur / Hótel Framtíð,64.656300000000002,-14.2807,0
76200001,Vopnafjörður - Vegamót,65.459261,-15.50708,0
76200002,Skjöldólfsstaðir,65.31667,-15.1163,0
76200003,Fellabær - Olís,65.2825,-14.4257,0
76200004,Egilsstaðir / Tjaldsvæði,65.2614,-14.4059,0
76200005,Egilsstaðir - Tjaldsvæðið,65.2587083533151,-14.4069628003902,0
76207002,Egilsstaðir / Flugvöllur,65.274799999999999,-14.4062,0
76207003,Egilsstaðir / Hamragerði,65.256100000000004,-14.4129,0
76207005,Egilsstaðir / Íþróttamiðstöð,65.266800000000003,-14.3965,0
76207006,Ársskógar / Dalskógar,65.264799999999994,-14.386900000000001,0
76207007,Egilsstaðir / Selbrekka v. Sey.fj.veg,65.260000000000005,-14.389099999999999,0
76207008,Egilsstaðir / Norðurtún,65.2696258706558,-14.3920844766193,0
77080001,Höfn í Hornafirði /Sundlaug,64.254227,-15.207482,0
77080002,Freysnes,63.990386,-16.893033,0
77080003,Skaftafell,64.015611,-16.965545,0
77080004,Skaftafell,64.015599,-16.9654,0
77080005,Freysnes,63.990355,-16.893124,0
77080007,Jökulsárlón,64.046076,-16.177622,0
77080008,Jökulsárlón,64.046031,-16.177135,0
77087801,Höfn / Flugvöllur,64.302199999999999,-15.2262,0
77087802,Höfn - Tjaldsvæði,64.25819,-15.20395,0
80000001,Landeyjahöfn,63.5323020405119,-20.1197098339123,0
82000001,Selfoss - N1,63.937021999999999,-20.987521999999998,0
82000002,Selfoss - Ráðhúsið,63.937351,-21.001897,0
82000003,Selfoss - Olís,63.943483999999998,-21.008141999999999,0
82000004,Selfoss - Olís,63.943386,-21.008523,0
82000005,Selfoss - Ráðhúsið,63.937271000000003,-21.001902000000001,0
82000006,Selfoss - FSU,63.932287,-20.999224,0
82000007,FSU,63.932158,-20.999297,0
82000008,Tryggvagata / Suðurengi,63.926847,-20.999575,0
82000009,Sunnulækjarskóli,63.926157,-20.994187,0
82000010,Erlurimi / Sílatjörn,63.928054,-20.991604,0
82000011,Selfoss - Vallaskóli,63.933829,-20.995979,0
82000012,Selfoss - Sundhöll,63.935726,-20.998903,0
82000013,Selfoss - Sundhöll,63.935719,-20.998998,0
82000014,Húsasmiðjan,63.932257,-21.015843,0
82000015,Eyrarvegur / Lágheiði,63.931925,-21.016417,0
82000016,Sandvíkurbæir,63.911659,-21.053337,0
82000017,Sandvíkurbæir,63.911587,-21.053372,0
82000018,Tjarnarbyggð,63.89266,-21.076469,0
82000019,Tjarnarbyggð,63.892595,-21.076437,0
82000020,Eyrarbraut / Eyjasel,63.838602,-21.070039,0
82000021,Hásteinsvegur / Stjörnusteinar,63.8367,-21.062546,0
82000022,Hásteinsvegur / Ólafsvellir,63.832863,-21.05072,0
82000023,Baldurshagi,63.8324,-21.045467,0
82000024,Hásteinsvegur / Strandgata,63.834397,-21.058756,0
82000025,Eyrarbraut / Eyjasel,63.838655,-21.070147,0
82000026,Hafnarbrú,63.866803,-21.16298,0
82000027,Búðarstígur,63.864845,-21.157722,0
82000028,Eyrargata,63.862126,-21.14676,0
82000029,Háeyrarvellir,63.860717,-21.142391,0
82000030,Barnaskólinn Eyrarbakka,63.858538,-21.133986,0
82000036,Selfoss - Vallaskóli,63.933871,-20.995996,0
82000037,Langholt / Larensstræti,63.937481061979597,-20.9790163141965,0
82000038,Langholt / Larensstræti,63.937487,-20.978881,0
82000039,Litla-Hraun,63.860568611069098,-21.1290119338803,0
82000041,Barnaskólinn Stokkseyri,63.8374936404431,-21.065082799988101,0
82000042,Eyravegur / Kirkjuvegur,63.936383,-21.00682,0
82000043,Eyravegur / Kirkjuvegur,63.936319999651801,-21.006666020836001,0
82000044,Barnaskólinn Stokkseyri,63.83781,-21.06716,0
85080001,Vík í Mýrdal,63.418369,-19.003165,0
85080002,Vík í Mýrdal,63.418279,-19.003218,0
85090002,Kirkjubæjarklaustur,63.793694,-18.03875,0
86130001,Hvolsvöllur,63.749494,-20.23306,0
86130002,Hvolsvöllur,63.749747,-20.232882,0
86130003,Skógar,63.524103,-19.504503,0
86140001,Hella,63.834862,-20.401652,0
86140002,Hella,63.834994,-20.401563,0
87100001,Flúðir,64.1308641273949,-20.3214083190065,0
87160001,Hveragerði - Shell,63.995477,-21.184366,0
87160002,Hveragerði - Shell,63.995464,-21.184515,0
87170001,Þorlákshöfn,63.856668,-21.383841,0
87190001,Borg í Grímsnesi,64.0746664731188,-20.7643082216857,0
87190003,Þrastarlundur,64.01444,-20.949087,0
87190004,Þóroddsstaðir,64.119065,-20.708499,0
87190005,Þóroddsstaðir,64.119199,-20.708822,0
87200001,Brautarholt,64.023167,-20.521894,0
87200002,Skeiða- og Þjórsárdalsvegur,64.046013,-20.411393,0
87210001,Reykholt,64.177459,-20.453062,0
87210002,Laugarás,64.112901,-20.503891,0
87210003,Laugarvatn,64.220175,-20.732191,0
90000001,Stjórnarráðið,64.147504999999995,-21.934808,0
90000002,Þjóðleikhúsið,64.146761999999995,-21.931048000000001,0
90000003,Fríkirkjuvegur,64.143101000000001,-21.940087999999999,0
90000004,Menntaskólinn í Reykjavík / MR,64.146477000000004,-21.937258,0
90000006,Umferðarmiðstöðin (BSÍ),64.137099,-21.933662,0
90000007,Umferðarmiðstöðin (BSÍ),64.137941598162499,-21.9339090580538,0
90000009,Nauthólsvegur / Natura,64.130841,-21.929604,0
90000011,Snorrabraut,64.138750000000002,-21.921420000000001,0
90000013,Kringlan,64.131921000000006,-21.889215,0
90000015,Kringlumýrarbraut / Kringlan ,64.130009,-21.900467,0
90000016,Kringlumýrarbraut / Kringlan,64.129588,-21.899836,0
90000018,Ártún,64.123754000000005,-21.821591000000002,0
90000019,Ártún,64.124213999999995,-21.822106999999999,0
90000020,Grandi,64.155814000000007,-21.941402,0
90000021,Grandagarður,64.153042999999997,-21.951070000000001,0
90000022,Mýrargata,64.151381000000001,-21.948571000000001,0
90000029,Klettagarðar / Skarfagarðar,64.153822000000005,-21.869633,0
90000030,Þjóðskjalasafnið,64.142627000000005,-21.90634,0
90000031,Gamla sjónvarpshúsið,64.140660999999994,-21.896675999999999,0
90000032,Nordica,64.140141999999997,-21.887948000000002,0
90000033,Laugardalshöll,64.138023000000004,-21.877569999999999,0
90000034,Orkuhúsið,64.135553000000002,-21.873334,0
90000036,Teigar,64.144585000000006,-21.892053000000001,0
90000037,Tún,64.143826000000004,-21.892754,0
90000038,Fen,64.129480999999998,-21.863616,0
90000039,Mörkin,64.129536999999999,-21.863101,0
90000040,Nökkvavogur,64.132948999999996,-21.855219999999999,0
90000041,Suðurlandsbraut / Glæsibær,64.133503,-21.869105,0
90000042,Skeifan / Glæsibær,64.132639,-21.868289,0
90000044,Gnoðarvogur / Ljósheimar,64.13203,-21.863386999999999,0
90000045,Glæsibær,64.133900999999994,-21.867151,0
90000046,Orkuhúsið,64.136435000000006,-21.874203000000001,0
90000047,Laugardalshöll,64.139195999999998,-21.879543000000002,0
90000048,Nordica,64.140316999999996,-21.889824000000001,0
90000049,Hátún,64.141194999999996,-21.898187,0
90000050,Fíladelfía,64.142926,-21.907164,0
90000051,Klettagarðar / Skarfagarðar,64.153716000000003,-21.869696000000001,0
90000052,Barónsstígur,64.144475,-21.918977999999999,0
90000054,Þjóðleikhúsið,64.146842000000007,-21.930941000000001,0
90000055,Lækjartorg,64.147464999999997,-21.936230999999999,0
90000056,Ráðhúsið,64.146559999999994,-21.942413999999999,0
90000057,Ráðhúsið,64.146261999999993,-21.941607000000001,0
90000061,Mýrargata,64.151683000000006,-21.949006000000001,0
90000062,Grandagarður,64.153109000000001,-21.949784000000001,0
90000063,Grunnslóð,64.154464000000004,-21.947669000000001,0
90000064,Fiskislóð,64.155849000000003,-21.945205000000001,0
90000068,Stekkjarbakki,64.107754999999997,-21.841087000000002,0
90000069,Arnarbakki,64.104746000000006,-21.835345,0
90000071,Rangársel,64.098157999999998,-21.846830000000001,0
90000072,Rangársel,64.098067999999998,-21.846626000000001,0
90000073,Eyjabakki,64.110277999999994,-21.828901999999999,0
90000074,Dvergabakki,64.110315,-21.834713000000001,0
90000075,Mjódd,64.109701999999999,-21.842642999999999,0
90000076,Víkin,64.120518000000004,-21.854944,0
90000077,Bústaðakirkja,64.120818999999997,-21.860312,0
90000078,Ásgarður Fossvogi,64.121407000000005,-21.865542999999999,0
90000079,Grímsbær,64.122631999999996,-21.876021999999999,0
90000080,Furugerði,64.123416000000006,-21.883334000000001,0
90000081,Borgarspítalinn,64.124171000000004,-21.888175,0
90000083,RÚV,64.125810999999999,-21.888448,0
90000084,RÚV,64.125855000000001,-21.887882999999999,0
90000085,TBR / Glæsibær,64.133969,-21.866965,0
90000086,Fellsmúli,64.131416000000002,-21.883033000000001,0
90000087,Miðbær,64.133427999999995,-21.882667999999999,0
90000088,Háaleitisbraut / Múlar,64.136689000000004,-21.887231,0
90000089,Lágmúli,64.137862999999996,-21.891022,0
90000090,Háteigsvegur / Skipholt,64.137293999999997,-21.898216000000001,0
90000091,Háteigskirkja,64.138126999999997,-21.904177000000001,0
90000092,Háteigsvegur / Langahlíð,64.138844000000006,-21.909261999999998,0
90000093,Rauðarárstígur,64.140247000000002,-21.915137999999999,0
90000094,Þjóðminjasafnið,64.142291,-21.949048999999999,0
90000096,Meistaravellir / Grandavegur,64.147909999999996,-21.960201000000001,0
90000097,Meistaravellir / Flyðrugrandi,64.147192000000004,-21.963691000000001,0
90000098,KR,64.146040999999997,-21.965254999999999,0
90000099,Kaplaskjólsvegur / Ægisíða,64.144987,-21.969866,0
90000114,Kaplaskjól,64.144683000000001,-21.97099,0
90000115,KR,64.146022000000002,-21.96482,0
90000116,Meistaravellir,64.147147000000004,-21.963372,0
90000117,Meistaravellir / Grandavegur,64.147845000000004,-21.959979000000001,0
90000119,Rauðarárstígur,64.140139000000005,-21.915417000000001,0
90000120,Háteigsvegur / Langahlíð,64.138605999999996,-21.908553000000001,0
90000121,Háteigskirkja,64.137991999999997,-21.903821000000001,0
90000122,Háteigsvegur / Bólstaðarhlíð,64.137244999999993,-21.898561999999998,0
90000124,Háaleitisbraut / Lágmúli,64.137737000000001,-21.891639999999999,0
90000125,Háaleitisbraut / Mýri,64.136178999999998,-21.887205000000002,0
90000126,Miðbær,64.133848,-21.883876999999998,0
90000127,Fellsmúli,64.131478000000001,-21.883642999999999,0
90000129,Selásbraut / Þverás,64.1035448158214,-21.783479,0
90000132,Borgarspítalinn,64.123796999999996,-21.886690000000002,0
90000133,Eyrarland,64.123012000000003,-21.881727999999999,0
90000134,Grímsbær,64.122275000000002,-21.874306000000001,0
90000135,Ásgarður Fossvogi,64.121174999999994,-21.864595999999999,0
90000136,Bústaðakirkja,64.120459999999994,-21.858523000000002,0
90000137,Víkin,64.120418000000001,-21.852499000000002,0
90000138,Blesugróf,64.117293000000004,-21.844929,0
90000139,Dvergabakki,64.110214999999997,-21.834441999999999,0
90000140,Eyjabakki,64.110163999999997,-21.828050000000001,0
90000141,Hólabrekkuskóli,64.108001999999999,-21.817554999999999,0
90000142,Sogavegur / Bústaðavegur,64.120923000000005,-21.853695999999999,0
90000143,Sogavegur / Bústaðavegur,64.120937999999995,-21.853898000000001,0
90000144,Arnarbakki / Leirubakki,64.104906999999997,-21.835332999999999,0
90000145,Stekkjarbakki,64.108241000000007,-21.840572000000002,0
90000146,Borgarspítali,64.123007000000001,-21.8916,0
90000148,Hádegismóar,64.113864000000007,-21.776368000000002,0
90000150,Sogavegur / Grundargerði,64.127955999999998,-21.870843000000001,0
90000151,Elliðaárdalur,64.118983999999998,-21.845509,0
90000154,Bæjarháls,64.120681000000005,-21.808814000000002,0
90000155,Vogar,64.134956000000003,-21.849685000000001,0
90000156,Holtagarðar,64.141338000000005,-21.850282,0
90000157,Sæbraut / Sægarðar,64.143242000000001,-21.852083,0
90000158,Barðastaðir,64.156867000000005,-21.750616999999998,0
90000159,Sæbraut / Sægarðar,64.142990999999995,-21.852385000000002,0
90000160,Sundagarðar,64.150577999999996,-21.871116000000001,0
90000161,Sogavegur / Akurgerði,64.128536999999994,-21.874255999999999,0
90000162,Laugarnestangi,64.151443,-21.882252000000001,0
90000163,Kirkjusandur,64.149201000000005,-21.884996000000001,0
90000164,Laugarnesvegur / Borgartún,64.146968000000001,-21.888725999999998,0
90000165,Hótel Cabin,64.146184000000005,-21.896419999999999,0
90000167,Hofsvallagata / Hávallagata,64.147752999999994,-21.951418,0
90000168,Hofsvallagata / Hringbraut,64.146702000000005,-21.954384000000001,0
90000169,Hofsvallagata / Reynimelur,64.145408000000003,-21.958062999999999,0
90000170,Hagi,64.143855000000002,-21.962456,0
90000171,Melaskóli,64.142178999999999,-21.958518999999999,0
90000172,Hjarðarhagi / Vesturgarður,64.141748000000007,-21.961682,0
90000173,Hjarðarhagi / Dunhagi,64.138790999999998,-21.958537,0
90000174,Íslensk Erfðagreining,64.135388000000006,-21.944293999999999,0
90000175,Íslensk Erfðagreining,64.135558000000003,-21.943653000000001,0
90000176,Hofsvallagata / Ægisíða,64.142610000000005,-21.965501,0
90000177,Reykjavíkurflugvöllur,64.132627999999997,-21.949452999999998,0
90000178,Reykjavíkurflugvöllur,64.132694999999998,-21.949186999999998,0
90000179,Hofsvallagata / Hringbraut,64.146711999999994,-21.954029999999999,0
90000180,Hofsvallagata / Hávallagata,64.147682000000003,-21.951281000000002,0
90000182,Hótel Cabin,64.146084999999999,-21.895788,0
90000183,Laugarnesvegur / Borgartún,64.146955000000005,-21.888466999999999,0
90000184,Laugarnesvegur / Kirkjusandur,64.149219000000002,-21.884687,0
90000185,Laugarnestangi,64.150977999999995,-21.882624,0
90000187,Dalbraut,64.150644,-21.875004000000001,0
90000188,Hrafnista,64.149017999999998,-21.867405999999999,0
90000190,Bakkastaðir / Barðastaðir,64.158095000000003,-21.751086999999998,0
90000191,Sund,64.140213000000003,-21.850695999999999,0
90000192,Hamrahlíð,64.130847000000003,-21.902054,0
90000193,Vogar,64.133594000000002,-21.850186999999998,0
90000198,Straumur / Birtingakvísl,64.123307,-21.822564,0
90000200,Skeljanes,64.126020999999994,-21.949149999999999,0
90000201,Skeljanes / Bauganes,64.128043000000005,-21.946857999999999,0
90000202,Skeljanes / Bauganes,64.128020000000006,-21.947071000000001,0
90000203,Einarsnes / Bauganes,64.130487000000002,-21.953125,0
90000204,Þorragata,64.132767000000001,-21.952677999999999,0
90000205,Þorragata,64.132907000000003,-21.953046000000001,0
90000206,Skerjagarðar,64.135620000000003,-21.956061999999999,0
90000207,Stúdentagarðar,64.137293,-21.954183,0
90000208,Hjarðarhagi / Vesturgarður,64.141752999999994,-21.961425999999999,0
90000209,Hótel Saga,64.141204999999999,-21.954021999999998,0
90000210,Þjóðarbókhlaðan,64.1435118726051,-21.9511478070477,0
90000211,Héðinsgata,64.152135000000001,-21.881371000000001,0
90000212,Höfðatorg,64.1453635005561,-21.9075736844657,0
90000213,Laugardalslaug,64.146651000000006,-21.879681000000001,0
90000214,Brúnavegur / Laugarásvegur,64.146765000000002,-21.872312999999998,0
90000215,Hrafnista,64.146572000000006,-21.866614999999999,0
90000216,Austurbrún / Dragavegur,64.145149000000004,-21.864176,0
90000217,Austurbrún / Hólsvegur,64.143991,-21.864578000000002,0
90000218,Langholtsvegur / Hólsvegur,64.142426,-21.860592,0
90000219,Sunnutorg,64.141076999999996,-21.861325999999998,0
90000220,Langholtsvegur / Holtavegur,64.138677000000001,-21.859358,0
90000221,Langholtskirkja,64.136089999999996,-21.856742000000001,0
90000222,Skeiðarvogur / Langholtsvegur,64.133346000000003,-21.854507999999999,0
90000223,Menntaskólinn við Sund / MS,64.131214,-21.861474999999999,0
90000224,Grensásvegur / Ármúli,64.132621999999998,-21.873460999999999,0
90000225,Grensás,64.130303999999995,-21.875174999999999,0
90000226,Háskólatorg,64.140344,-21.950761,0
90000227,Þjóðminjasafnið,64.142334000000005,-21.948415000000001,0
90000228,Sogavegur / Háagerði,64.126182,-21.864211000000001,0
90000229,Sogavegur / Borgargerði,64.124852000000004,-21.859741,0
90000230,Sogavegur / Tunguvegur,64.122957,-21.855559,0
90000231,Borgarspítali,64.123247000000006,-21.891514999999998,0
90000232,Sléttuvegur,64.123625000000004,-21.894418999999999,0
90000233,Hjarðarhagi / Dunhagi,64.138760000000005,-21.957975000000001,0
90000234,Sogavegur / Tunguvegur,64.123034000000004,-21.855433000000001,0
90000235,Sogavegur / Borgargerði,64.124973999999995,-21.859756000000001,0
90000236,Sogavegur / Háagerði,64.126677000000001,-21.865428999999999,0
90000237,Sogavegur / Grundargerði,64.128128000000004,-21.871257,0
90000238,Sogavegur / Akurgerði,64.128591,-21.874015,0
90000239,Grensás,64.130322000000007,-21.874594999999999,0
90000240,Grensásvegur / Skeifan,64.133196,-21.872544,0
90000241,Gnoðarvogur / Ljósheimar,64.131991999999997,-21.863696000000001,0
90000242,Menntaskólinn við Sund / MS,64.131254999999996,-21.860710000000001,0
90000243,Langholtskirkja,64.136089999999996,-21.856421000000001,0
90000244,Langholtsvegur / Holtavegur,64.138972999999993,-21.859317000000001,0
90000245,Sunnutorg,64.141084000000006,-21.861124,0
90000246,Háskólabíó,64.139741000000001,-21.951910999999999,0
90000247,Austurbrún / Hólsvegur,64.143486999999993,-21.864643000000001,0
90000248,Austurbrún / Dragavegur,64.145522999999997,-21.863876000000001,0
90000249,Hrafnista,64.146758000000005,-21.867253000000002,0
90000250,Sundlaugarvegur / Laugarásvegur,64.146877000000003,-21.873929,0
90000251,Laugardalslaug,64.146805999999998,-21.879884000000001,0
90000252,Höfðatorg,64.145431000000002,-21.908256999999999,0
90000253,Héðinsgata,64.152190000000004,-21.880973000000001,0
90000254,Þjóðarbókhlaðan,64.1434555523398,-21.9514627933193,0
90000255,Hagatorg,64.14219,-21.953469,0
90000256,Suðurgata / Hjarðarhagi,64.137371000000002,-21.954611,0
90000257,Skerjagarðar,64.135383000000004,-21.956831999999999,0
90000258,Einarsnes / Bauganes,64.130375999999998,-21.952942,0
90000259,Kjarvalsstaðir,64.138238999999999,-21.911937000000002,0
90000260,Straumur / Nethylur,64.122247999999999,-21.814985,0
90000261,Straumur / Birtingakvísl,64.12348,-21.821,0
90000262,Gullinbrú,64.132431999999994,-21.814488000000001,0
90000263,Kjarvalsstaðir,64.138356999999999,-21.912098,0
90000264,Ingunnarskóli,64.126644999999996,-21.757383000000001,0
90000265,Kristnibraut / Prestastígur,64.126738000000003,-21.750591,0
90000266,Gvendargeisli / Þórðarsveigur,64.126209000000003,-21.743942000000001,0
90000267,Austurver,64.127986000000007,-21.886471,0
90000268,Borgarleikhús,64.128443000000004,-21.895755000000001,0
90000269,Gvendargeisli / Sæmundarsel,64.125862999999995,-21.739941999999999,0
90000270,Menntaskólinn við Hamrahlíð / MH,64.131308000000004,-21.907267999999998,0
90000271,Langahlíð / Mávahlíð,64.133427999999995,-21.911563000000001,0
90000272,Langahlíð,64.135536999999999,-21.909839999999999,0
90000273,Flókagata,64.137355999999997,-21.908407,0
90000274,Melaskóli,64.142334000000005,-21.958472,0
90000275,Ægisíða / Hofsvallagata,64.143521000000007,-21.966996000000002,0
90000276,Kaplaskjól,64.144942,-21.97167,0
90000277,Öldugrandi,64.150563000000005,-21.981538,0
90000278,Seilugrandi,64.149861000000001,-21.976382000000001,0
90000279,Keilugrandi,64.149580999999998,-21.971682000000001,0
90000280,Boðagrandi,64.149894000000003,-21.967355000000001,0
90000281,JL húsið,64.150306,-21.959982,0
90000282,Flókagata,64.137407999999994,-21.908802999999999,0
90000283,Langahlíð,64.135504999999995,-21.910371999999999,0
90000284,Langahlíð / Mávahlíð,64.133426,-21.911883,0
90000285,Menntaskólinn við Hamrahlíð / MH,64.131193999999994,-21.90699,0
90000286,Hamrahlíð,64.130705000000006,-21.901821000000002,0
90000287,Verzló,64.128162000000003,-21.895202999999999,0
90000288,Austurver,64.128950000000003,-21.885133,0
90000289,Þúsöld,64.128636999999998,-21.767074000000001,0
90000290,Kristnibraut / Maríubaugur,64.127098000000004,-21.765626999999999,0
90000291,Kelduskóli / Korpa,64.157482999999999,-21.755441999999999,0
90000292,Snorrabraut,64.138481999999996,-21.921249,0
90000293,Þúsöld / Húsasmiðjan,64.130264999999994,-21.762504,0
90000294,Þúsöld / Húsasmiðjan,64.130176000000006,-21.762267000000001,0
90000295,Hlemmur,64.143253000000001,-21.914211000000002,0
90000296,Háskóli Íslands,64.141782000000006,-21.946535000000001,0
90000301,Perlan,64.130144999999999,-21.914348,0
90000302,Veðurstofan,64.126990000000006,-21.907185999999999,0
90000303,Rafstöðvarvegur,64.123937999999995,-21.840328,0
90000304,Fylkisvegur,64.114242000000004,-21.790704000000002,0
90000305,Fylkisvegur,64.114279999999994,-21.790483999999999,0
90000306,Stórhöfði / Breiðhöfði,64.128770000000003,-21.823604,0
90000308,Stórhöfði / Höfðabakki,64.128907999999996,-21.814619,0
90000312,Krókháls / Stuðlaháls,64.121594000000002,-21.790838999999998,0
90000315,Hraunsás,64.113179000000002,-21.788440999999999,0
90000316,Rofabær / Brekkubær,64.115510999999998,-21.791777,0
90000317,Árbæjarskóli,64.116201000000004,-21.796686000000001,0
90000318,Rofabær / Hábær,64.116902999999994,-21.801745,0
90000319,Rofabær / Hraunbær,64.117902000000001,-21.808532,0
90000320,Hraunbær,64.119823999999994,-21.807887000000001,0
90000321,Norðlingabraut / Helluvað,64.102624000000006,-21.766770999999999,0
90000322,Bugða / Kambavað,64.100786999999997,-21.765827000000002,0
90000323,Elliðabraut / Bugða,64.097712000000001,-21.779661000000001,0
90000324,Leiti,64.125434999999996,-21.896737999999999,0
90000325,Veðurstofan,64.127258999999995,-21.907243000000001,0
90000326,Perlan,64.130236999999994,-21.913789000000001,0
90000327,Einarsnes,64.129536000000002,-21.949618999999998,0
90000329,Einarsnes,64.129624000000007,-21.949739000000001,0
90000332,Háskóli Íslands,64.142219999999995,-21.946825,0
90000333,Nauthóll - HR,64.124713,-21.927987999999999,0
90000334,Stórhöfði / Höfðabakki,64.129026999999994,-21.814546,0
90000335,Bugða / Lindarvað,64.100202999999993,-21.770962000000001,0
90000336,Bugða / Móvað,64.098996,-21.773999,0
90000338,Bugða / Reiðvað,64.098217000000005,-21.776816,0
90000342,Stórhöfði / Breiðhöfði,64.128853000000007,-21.823920000000001,0
90000343,Suðurfell,64.099587999999997,-21.82799,0
90000344,Norðurfell / Æsufell,64.101750999999993,-21.830020999999999,0
90000345,Vesturberg / Norðurfell,64.103686999999994,-21.824862,0
90000346,Vesturberg,64.105647000000005,-21.823142000000001,0
90000347,Vesturberg / Suðurhólar,64.107928999999999,-21.821142999999999,0
90000348,Árbæjarsafn,64.118633000000003,-21.813897999999998,0
90000349,Strengur / Laxakvísl,64.121233000000004,-21.817246000000001,0
90000350,Strengur / Sílakvísl,64.121369000000001,-21.827197999999999,0
90000351,Straumur / Nesti,64.123209000000003,-21.825762999999998,0
90000352,Elliðabraut / Sandavað,64.099132999999995,-21.780391999999999,0
90000353,Bíldshöfði / Vagnhöfði,64.125552999999996,-21.819095999999998,0
90000354,Bíldshöfði / Höfðabakki,64.125640000000004,-21.813707999999998,0
90000355,Höfðabakki / Dvergshöfði,64.127211000000003,-21.811826,0
90000356,Funafold,64.136380000000003,-21.806744999999999,0
90000357,Fjallkonuvegur / Hverafold,64.135579000000007,-21.801781999999999,0
90000358,Fjallkonuvegur / Frostafold,64.134635000000003,-21.797646,0
90000359,Fjallkonuvegur / Logafold,64.135548,-21.793113999999999,0
90000360,Fjallkonuvegur / Reykjafold,64.137719000000004,-21.790887000000001,0
90000361,Fjallkonuvegur / Gagnvegur,64.139240999999998,-21.789273000000001,0
90000362,Gagnvegur / Dalhús,64.139278000000004,-21.784548999999998,0
90000363,Gagnvegur / Vallarhús,64.139607999999996,-21.780282,0
90000364,Gagnvegur / Brekkuhús,64.138552000000004,-21.776655000000002,0
90000365,Vættaborgir,64.154372,-21.784844,0
90000366,Spöngin,64.150208000000006,-21.791357000000001,0
90000367,Borgavegur,64.149303000000003,-21.787534999999998,0
90000368,Langirimi / Mosarimi,64.145972,-21.787891999999999,0
90000369,Miðgarður,64.144486999999998,-21.791620999999999,0
90000370,Langirimi / Flétturimi,64.142182000000005,-21.792563000000001,0
90000371,Langirimi / Hallsvegur,64.140846999999994,-21.794042000000001,0
90000373,Lokinhamrar / Vegghamrar,64.138438,-21.808477,0
90000374,Höfðar,64.126981999999998,-21.812224000000001,0
90000375,Norðlingabraut / Bjallavað,64.102853999999994,-21.776629,0
90000376,Straumur / Nesti,64.123281000000006,-21.825963000000002,0
90000377,Strengur / Sílakvísl,64.121291999999997,-21.827179999999998,0
90000378,Strengur / Laxakvísl,64.121185999999994,-21.817062,0
90000379,Árbæjarsafn,64.119353000000004,-21.813471,0
90000380,Vesturberg / Suðurhólar,64.108298000000005,-21.821069999999999,0
90000381,Vesturberg,64.105378999999999,-21.823632,0
90000382,Vesturberg / Norðurfell,64.103132000000002,-21.825614000000002,0
90000383,Norðurfell / Æsufell,64.101747000000003,-21.830307000000001,0
90000384,Suðurfell,64.099575000000002,-21.828261999999999,0
90000385,Seljabraut / Flúðasel,64.098344999999995,-21.828419,0
90000386,Seljabraut,64.099943999999994,-21.830724,0
90000387,Seljabraut / Engjasel,64.102092999999996,-21.833703,0
90000388,Lokinhamrar / Gerðhamrar,64.138277,-21.816292,0
90000389,Seljabraut / Seljaskógar,64.103370999999996,-21.835476,0
90000390,Lokinhamrar / Dverghamrar,64.136858,-21.812682,0
90000391,Norðlingabraut / Ferjuvað,64.103829000000005,-21.771664000000001,0
90000394,Klettagarðar / Kænugarðar,64.151934999999995,-21.864747000000001,0
90000395,Skeifan,64.128502999999995,-21.870422000000001,0
90000396,Gerði,64.126326000000006,-21.85755,0
90000397,Norðlingabraut / Árvað,64.101416,-21.778054000000001,0
90000398,Hraunbær,64.119799,-21.808087,0
90000399,Rofabær / Hraunbær,64.117812000000001,-21.808415,0
90000400,Rofabær / Hábær,64.116860000000003,-21.801618000000001,0
90000401,Árbæjarskóli,64.116063999999994,-21.796227999999999,0
90000402,Rofabær / Brekkubær,64.115335000000002,-21.791333999999999,0
90000403,Hraunsás,64.113026000000005,-21.787925000000001,0
90000404,Selásbraut / Næfurás,64.111407,-21.785881,0
90000405,Selásbraut / Reykás,64.109463000000005,-21.787354000000001,0
90000406,Selásbraut / Sauðás,64.108063000000001,-21.788401,0
90000407,Selásbraut / Vallarás,64.105490000000003,-21.786624,0
90000408,Selásskóli,64.105013999999997,-21.783432000000001,0
90000409,Selásbraut / Vallarás,64.105808999999994,-21.786807,0
90000410,Selásbraut / Skógarás,64.108103,-21.788205000000001,0
90000411,Selásbraut / Reykás,64.109718999999998,-21.786949,0
90000412,Selásbraut / Næfurás,64.111586000000003,-21.785536,0
90000413,Breiðhöfði / Ártún,64.123604999999998,-21.823945999999999,0
90000414,Gerði,64.126723999999996,-21.857773999999999,0
90000415,Skeifan,64.128968,-21.871115,0
90000418,Korpúlfsstaðir,64.153683000000001,-21.762822,0
90000419,Klettagarðar / Kænugarðar,64.152092999999994,-21.865259000000002,0
90000420,Barðastaðir,64.156749000000005,-21.750935999999999,0
90000421,Breiðhöfði / Ártún,64.124564000000007,-21.823575999999999,0
90000422,Heiðargerði,64.127854999999997,-21.876909999999999,0
90000423,Álmgerði,64.124461999999994,-21.879465,0
90000424,Jaðarsel / Jakasel,64.096286000000006,-21.827762,0
90000425,Jaðarsel / Jórusel,64.094853000000001,-21.830760999999999,0
90000426,Jaðarsel / Klyfjasel,64.092737,-21.836881999999999,0
90000427,Jaðarsel / Melsel,64.093942999999996,-21.841788000000001,0
90000428,Jaðarsel / Holtasel,64.096073000000004,-21.845217999999999,0
90000429,Hólmasel,64.096551000000005,-21.843836,0
90000431,Skógarsel / Stíflusel,64.098760999999996,-21.852779000000002,0
90000432,Skógarsel / Strandasel,64.100544999999997,-21.857308,0
90000433,Íþróttamiðstöð ÍR,64.102521999999993,-21.850059999999999,0
90000434,Skógarsel / Árskógar,64.104422,-21.84403,0
90000435,Hæðargarður,64.124771999999993,-21.878778000000001,0
90000436,Jaðarsel / Seljabraut,64.097731999999993,-21.827839999999998,0
90000437,Heiðargerði,64.127889999999994,-21.876432000000001,0
90000438,Korpúlfsstaðavegur / Brúnastaðir,64.155023,-21.757956,0
90000439,Víkurvegur / Keldnaholt,64.139365999999995,-21.771996999999999,0
90000440,Borgavegur / Víkurvegur,64.144959999999998,-21.775592,0
90000441,Kelduskóli / Korpa,64.157506999999995,-21.755284,0
90000442,Bakkastaðir / Barðastaðir,64.158046999999996,-21.750857,0
90000443,Korpúlfsstaðavegur / Brúnastaðir,64.155090999999999,-21.758423000000001,0
90000444,Fellaskóli ,64.101671,-21.822682,0
90000445,Norðurfell / Austurberg,64.101979,-21.817125999999998,0
90000446,Gerðuberg,64.104659999999996,-21.816776000000001,0
90000447,Suðurhólar / Austurberg,64.107772999999995,-21.815871000000001,0
90000448,Suðurhólar / Þrastarhólar,64.107738999999995,-21.809419999999999,0
90000449,Norðurhólar / Stelkshólar,64.109273000000002,-21.804421000000001,0
90000450,Norðurhólar / Smyrilshólar,64.110243999999994,-21.809901,0
90000451,Vesturhólar / Hrafnhólar,64.110557999999997,-21.815390000000001,0
90000452,Vesturhólar / Fýlshólar,64.111675000000005,-21.818466999999998,0
90000453,Vesturhólar / Höfðabakki,64.110290000000006,-21.820872000000001,0
90000454,Vættaborgir,64.154410999999996,-21.785038,0
90000455,Strætóvegur / Vættaborgir,64.152963999999997,-21.785333999999999,0
90000456,Gullinbrú / OLÍS,64.138306,-21.806982,0
90000457,Selásskóli,64.104934999999998,-21.783863,0
90000458,Klambratún,64.135469,-21.91402,0
90000459,Sundagarðar,64.150767000000002,-21.871359999999999,0
90000460,Hlíðar,64.133799999999994,-21.903618000000002,0
90000461,Kringlan,64.132227,-21.893581000000001,0
90000462,Lokinhamrar / Sporhamrar,64.139654,-21.812038,0
90000467,Lokinhamrar / Bláhamrar,64.137054,-21.810411,0
90000468,Skólavegur,64.148904999999999,-21.779651999999999,0
90000469,Egilshöll,64.14819,-21.772144,0
90000470,Gullengi / Laufengi,64.146930999999995,-21.779582000000001,0
90000471,Korpúlfsstaðir,64.153307999999996,-21.764408,0
90000472,Gullengi / Borgavegur,64.147073000000006,-21.783000000000001,0
90000473,Lokinhamrar / Vegghamrar,64.138513,-21.808404,0
90000474,Lokinhamrar / Sporhamrar,64.139761,-21.812023,0
90000475,Lokinhamrar / Leiðhamrar,64.140624,-21.817025,0
90000476,Melavegur / Tröllaborgir,64.154821,-21.791579,0
90000477,Melavegur / Goðaborgir,64.154217,-21.793594,0
90000478,Melavegur / Dofraborgir,64.153033,-21.797047,0
90000480,Gullinbrú / OLÍS,64.137622,-21.808404,0
90000481,Hlíðar,64.134129000000001,-21.903928000000001,0
90000482,Lokinhamrar / Dverghamrar,64.136911,-21.812576,0
90000483,Klambratún,64.136005999999995,-21.916077999999999,0
90000484,Kelduskóli / Vík,64.152593,-21.778546,0
90000485,Melavegur / Goðaborgir,64.153037999999995,-21.796900999999998,0
90000486,Melavegur / Hulduborgir,64.154145999999997,-21.793517000000001,0
90000487,Melavegur / Jötnaborgir,64.154769000000002,-21.791419999999999,0
90000489,Lokinhamrar / Gerðhamrar,64.138383,-21.816256,0
90000490,Strandvegur / Rimaflöt,64.144481,-21.806232,0
90000491,Gagnvegur / Brekkuhús,64.138692000000006,-21.776710000000001,0
90000492,Gagnvegur / Vallarhús,64.139617999999999,-21.781186000000002,0
90000493,Gagnvegur / Dalhús,64.139360999999994,-21.784849000000001,0
90000494,Fjallkonuvegur / Gagnvegur,64.139109000000005,-21.789567999999999,0
90000495,Fjallkonuvegur / Reykjafold,64.137739999999994,-21.791091999999999,0
90000496,Fjallkonuvegur / Jöklafold,64.135625000000005,-21.793327000000001,0
90000497,Fjallkonuvegur / Frostafold,64.134851999999995,-21.798155999999999,0
90000498,Fjallkonuvegur / Hverafold,64.135784000000001,-21.802316999999999,0
90000499,Funafold,64.136534999999995,-21.807020000000001,0
90000500,Borgavegur,64.149625,-21.788861000000001,0
90000501,Strætóvegur við Vættaborgir,64.153015,-21.785335,0
90000502,Kelduskóli / Vík,64.15272,-21.779028,0
90000503,Lokinhamrar / Hesthamrar,64.139427,-21.818164,0
90000504,Gullinbrú,64.133314999999996,-21.813624000000001,0
90000507,Lokinhamrar / Leiðhamrar,64.140539,-21.81694,0
90000508,Skógarsel / Árskógar,64.104707000000005,-21.843823,0
90000509,Íþróttamiðstöð ÍR,64.102635000000006,-21.850158,0
90000510,Skógarsel / Stúfsel,64.100688000000005,-21.857382000000001,0
90000511,Skógarsel / Stokkasel,64.098483999999999,-21.851918000000001,0
90000512,Hólmasel,64.096777000000003,-21.843647000000001,0
90000513,Jaðarsel / Holtasel,64.095962,-21.845364,0
90000514,Jaðarsel / Látrasel,64.093635000000006,-21.841113,0
90000515,Jaðarsel / Klyfjasel,64.092905999999999,-21.836071,0
90000516,Jaðarsel / Kaldasel,64.094551999999993,-21.831356,0
90000517,Jaðarsel / Jakasel,64.09639,-21.827376999999998,0
90000518,Egilshöll,64.148161000000002,-21.772221999999999,0
90000519,Víkurvegur / Borgavegur,64.145171,-21.774141,0
90000521,Jaðarsel / Seljabraut,64.097864000000001,-21.827732999999998,0
90000522,Hólabrekkuskóli,64.107945999999998,-21.817730000000001,0
90000523,Lokinhamrar / Hesthamrar,64.139332,-21.818393,0
90000524,Gerðuberg,64.104985999999997,-21.817050999999999,0
90000525,Norðurfell / Austurberg,64.101994000000005,-21.817495000000001,0
90000526,Fellaskóli,64.101775,-21.82293,0
90000527,Biskupsgata,64.12567,-21.735856999999999,0
90000529,Langirimi / Hallsvegur,64.140749,-21.793928000000001,0
90000530,Langirimi / Flétturimi,64.142384000000007,-21.792345000000001,0
90000531,Miðgarður,64.144565999999998,-21.791284000000001,0
90000532,Langirimi / Lyngrimi,64.146055000000004,-21.787452999999999,0
90000534,Víkurvegur / Keldnaholt,64.139227000000005,-21.772366999999999,0
90000537,Selásbraut / Þverás,64.1035037890937,-21.7832391624273,0
90000541,Vínlandsleið / Húsasmiðjan,64.130432999999996,-21.763805999999999,0
90000542,Þúsöld,64.129225000000005,-21.765284000000001,0
90000546,Gvendargeisli / Þórðarsveigur,64.126337000000007,-21.744282999999999,0
90000547,Kristnibraut / Prestastígur,64.126919000000001,-21.752396000000001,0
90000548,Ingunnarskóli,64.126812000000001,-21.757563999999999,0
90000549,Gvendargeisli / Sæmundarsel,64.125966000000005,-21.740397999999999,0
90000550,Kristnibraut / Maríubaugur,64.127101999999994,-21.767292000000001,0
90000551,Biskupsgata,64.125667000000007,-21.735565999999999,0
90000556,Grensásvegur / Skálagerði,64.126062000000005,-21.878181999999999,0
90000557,Grensásvegur / Breiðagerði,64.1265509276963,-21.8774411223735,0
90000558,Stórhöfði / Tengivegur,64.129084000000006,-21.820367999999998,0
90000559,Stórhöfði / Tengivegur ,64.129017000000005,-21.819683000000001,0
90000600,Vesturlandsvegur / Hálsar,64.124237,-21.793601,0
90000609,Nauthólsvegur / Natura,64.130283,-21.930057,0
90000627,Dalbraut,64.150638000000001,-21.874600999999998,0
90000628,Hrafnista,64.148988000000003,-21.867222000000002,0
90000629,Kleppsvegur / Hjallavegur,64.145760999999993,-21.858682999999999,0
90000630,Sæbraut / Kirkjusandur,64.149555000000007,-21.888833000000002,0
90000631,Sæbraut / Kirkjusandur,64.149596000000003,-21.889514999999999,0
90000632,Borgarholtsskóli,64.150362999999999,-21.784939000000001,0
90000633,Borgarholtsskóli,64.150336999999993,-21.784783999999998,0
90000634,Elliðabraut / Árvað,64.100352999999998,-21.778268000000001,0
90000635,Melavegur / Dvergaborgir,64.152002999999993,-21.798608000000002,0
90000636,Melavegur / Dvergaborgir,64.152008,-21.79878,0
90000645,Vesturlandsvegur / Viðarhöfði,64.124466999999996,-21.798732000000001,0
90000650,Fellsvegur,64.12986,-21.727788,0
90000651,Úlfarsbraut,64.13279,-21.736783,0
90000652,Lambhagavegur / Reynisvatnsvegur,64.13123,-21.751643,0
90000653,Skyggnisbraut,64.13606,-21.735226,0
90000654,Mímisbrunnur / Skyggnistorg,64.13642,-21.740884,0
90000655,Lambhagavegur / Reynisvatnsvegur,64.13119,-21.751475,0
90000656,Úlfarsbraut,64.13277,-21.736831,0
90000657,Fellsvegur,64.12942,-21.728207,0
90000661,Borgavegur / Gullengi,64.145752000000002,-21.783106,0
90000702,Esjurætur - Hiking Center,64.208419000000006,-21.712028,0
90000703,Klébergsskóli,64.237888999999996,-21.824185,0
90000704,Vallargrund / Esjugrund,64.240824000000003,-21.828047999999999,0
90000705,Esjuskáli,64.241861999999998,-21.829999000000001,0
90000707,Vallargrund / Esjugrund,64.240628999999998,-21.827923999999999,0
90000708,Klébergsskóli,64.237804999999994,-21.824263999999999,0
90000709,LSH / Hringbraut,64.135909,-21.928974,0
90000711,Esjuskáli,64.241735000000006,-21.82977,0
90000712,Harpa,64.14943,-21.930277,0
90000713,Harpa,64.149398,-21.932189,0
90000717,Vesturhólar / Höfðabakki,64.110748000000001,-21.819953999999999,0
90000718,Vesturhólar / Fýlshólar,64.111620000000002,-21.817805,0
90000719,Vesturhólar / Hrafnhólar,64.110622000000006,-21.815553999999999,0
90000720,Norðurhólar / Smyrilshólar,64.110190000000003,-21.809422999999999,0
90000721,Norðurhólar / Stelkshólar,64.109089999999995,-21.804492,0
90000722,Suðurhólar / Þrastarhólar,64.107806999999994,-21.808807000000002,0
90000723,Suðurhólar / Austurberg,64.107844999999998,-21.816040000000001,0
90000724,Seljabraut / Seljaskógar,64.103092000000004,-21.835325999999998,0
90000725,Seljabraut / Engjasel,64.101909000000006,-21.833665,0
90000726,Seljabraut,64.099637999999999,-21.830507000000001,0
90000727,Seljabraut / Flúðasel,64.098228000000006,-21.828427000000001,0
90000729,Rofabær / Brautarás,64.114922000000007,-21.787623,0
90000731,Hálsabraut,64.119653999999997,-21.797871000000001,0
90000732,Bæjarbraut,64.117652000000007,-21.799351999999999,0
90000733,Bæjarbraut,64.117724999999993,-21.799091000000001,0
90000734,Hálsabraut,64.119641000000001,-21.797585999999999,0
90000736,Lokinhamrar / Bláhamrar,64.136947,-21.810359,0
90000737,Víkurvegur / Borgavegur,64.144200999999995,-21.774926000000001,0
90000740,Gagnvegur / Völundarhús,64.138160999999997,-21.773972000000001,0
90000741,Gagnvegur / Völundarhús,64.138281000000006,-21.77421,0
90000744,Straumur / Nethylur,64.122195000000005,-21.815114000000001,0
90000745,Hamravík / Mosavegur,64.151332999999994,-21.775997,0
90000746,Hamravík / Mosavegur,64.151367,-21.775864,0
90000747,Esjumelar,64.194125999999997,-21.697398,0
90000748,Esjumelar,64.194212,-21.697271,0
90000749,Norðlingabraut / Helluvað,64.102703000000005,-21.766722999999999,0
90000750,Norðlingabraut / Ferjuvað,64.103900999999993,-21.771639,0
90000751,Norðlingabraut / Bjallavað,64.102902999999998,-21.776744000000001,0
90000752,Norðlingabraut / Árvað,64.101478,-21.778261000000001,0
90000753,Mímisbrunnur / Úlfarsbraut,64.134737999999999,-21.745795000000001,0
90000754,Borgavegur / Gullengi,64.146046999999996,-21.783242999999999,0
90000755,Bitruháls,64.121937000000003,-21.806509999999999,0
90000756,Grjótháls / Bitruháls,64.123575000000002,-21.803080999999999,0
90000757,Hálsabraut / Grjótháls,64.123163000000005,-21.797097000000001,0
90000758,Hálsabraut / Grjótháls,64.123373999999998,-21.796755999999998,0
90000759,Grjótháls / Bitruháls,64.123692000000005,-21.803101000000002,0
90000760,Bitruháls,64.121949999999998,-21.806757999999999,0
90000763,Lambhagavegur / Mímisbrunnur,64.134028999999998,-21.750167000000001,0
90000764,Reynisvatn,64.126632,-21.731949,0
90000767,Reynisvatn,64.126568,-21.732504,0
90000768,Gufunesbær,64.144192,-21.809488,0
90000769,Egilshöll,64.145946,-21.772323,0
90000770,Strandvegur / Rimaflöt,64.144722,-21.805754,0
90000771,Vesturlandsvegur / Úlfarsá,64.1358527085922,-21.7601463181546,0
90000772,Vesturlandsvegur / Úlfarsá,64.135916,-21.760679,0
90000774,Barðastaðir,64.155669,-21.751715,0
90000775,Sæbraut / Frakkastígur,64.147036,-21.921625,0
90000776,Sæbraut / Vitastígur,64.146372,-21.920335,0
90000777,Mimisbrunnur / Skyggnistorg,64.136328,-21.740712,0
90000778,Skyggnisbraut,64.135914492146497,-21.735381759014501,0
90000779,Mimisbrunnur / Úlfarsbraut,64.1348595193503,-21.7459323444902,0
90000780,Borgartún / Nóatún,64.145743026896497,-21.901810070218801,0
90000781,Borgartún / Nóatún,64.1458538511298,-21.902033705472,0
90000784,Flyðrugrandi,64.146497586512893,-21.9649264770744,0
90000797,Norðurás,64.113354,-21.784981,0
90000821,Bíó Paradís,64.1456391584898,-21.9248541506857,0
90000822,Bíó Paradís,64.1457374271584,-21.9258222252765,0
90000823,Barónsstígur,64.1445306090398,-21.9197335300998,0
90000824,Mosavegur,64.1513505277903,-21.7740144891439,0
90000825,Mosavegur / Skólavegur,64.1505905585822,-21.780350566037,0
90000827,Mosavegur / Skólavegur,64.150554875964,-21.7806198564486,0
90000828,Mosavegur,64.1512406045878,-21.7738817056917,0
90000829,Barónsstígur / Landspítalinn,64.1396529521985,-21.9283675315089,0
90000830,Barónsstígur / Egilsgata,64.1409925210397,-21.9232080587545,0
90000831,Egilsgata / Barónsstígur,64.1408158421469,-21.923355354822,0
90000832,Barónsstígur / Landspítalinn,64.1394715302765,-21.9294740174921,0
90000833,Arnarhóll / Lækjartorg,64.1480436105954,-21.9346417050613,0
90000834,BSÍ / Landspítalinn,64.13820220612,-21.9325578575586,0
90000835,BSÍ / Landspítalinn,64.1383737307461,-21.9331339700046,0
90000837,Snorrabraut / Hlemmur,64.1434733475698,-21.9163587374161,0
90000839,Vínlandsleið / Húsasmiðjan,64.1305961186251,-21.7638520718002,0
90000840,Krókháls / Askja,64.1234543423351,-21.7794510433599,0
90000841,Krókháls / Stuðlaháls,64.1216751303119,-21.791994722479,0
90000842,Krókháls / Askja,64.1232972804537,-21.7794661350101,0
